[{"id":1,"name":"Cally Russe","service":"Cost Accountant","location":"6th Floor","rating":5,"profileImage":"http://dummyimage.com/142x100.png/ff4444/ffffff","phone":"567-899-4142"},
{"id":2,"name":"Holt Ferenc","service":"Computer Systems Analyst I","location":"Room 166","rating":1,"profileImage":"http://dummyimage.com/208x100.png/cc0000/ffffff","phone":"781-426-3970"},
{"id":3,"name":"Karyl Ferrai","service":"Human Resources Assistant IV","location":"7th Floor","rating":2,"profileImage":"http://dummyimage.com/239x100.png/ff4444/ffffff","phone":"472-274-3813"},
{"id":4,"name":"Ursa Pedrazzi","service":"Help Desk Operator","location":"Apt 889","rating":4,"profileImage":"http://dummyimage.com/164x100.png/dddddd/000000","phone":"822-946-8916"},
{"id":5,"name":"Nellie Hutchings","service":"Recruiting Manager","location":"PO Box 23978","rating":2,"profileImage":"http://dummyimage.com/171x100.png/cc0000/ffffff","phone":"412-958-0525"},
{"id":6,"name":"Adena Seleway","service":"Librarian","location":"Suite 20","rating":5,"profileImage":"http://dummyimage.com/171x100.png/cc0000/ffffff","phone":"592-961-4958"},
{"id":7,"name":"Westley Northleigh","service":"Media Manager III","location":"Suite 64","rating":4,"profileImage":"http://dummyimage.com/137x100.png/5fa2dd/ffffff","phone":"519-951-6501"},
{"id":8,"name":"Hedwiga Tynemouth","service":"Actuary","location":"12th Floor","rating":4,"profileImage":"http://dummyimage.com/134x100.png/ff4444/ffffff","phone":"350-767-7353"},
{"id":9,"name":"Aile de Najera","service":"Human Resources Manager","location":"Room 168","rating":5,"profileImage":"http://dummyimage.com/205x100.png/cc0000/ffffff","phone":"988-438-7901"},
{"id":10,"name":"Tobit Drake","service":"Dental Hygienist","location":"Room 570","rating":2,"profileImage":"http://dummyimage.com/144x100.png/5fa2dd/ffffff","phone":"194-711-6436"},
{"id":11,"name":"Jessi Wallach","service":"Accounting Assistant IV","location":"PO Box 41187","rating":2,"profileImage":"http://dummyimage.com/179x100.png/5fa2dd/ffffff","phone":"490-250-8882"},
{"id":12,"name":"Jorge Duckit","service":"Accounting Assistant I","location":"PO Box 42960","rating":4,"profileImage":"http://dummyimage.com/217x100.png/ff4444/ffffff","phone":"366-966-4725"},
{"id":13,"name":"Ricardo McGinny","service":"Environmental Tech","location":"4th Floor","rating":4,"profileImage":"http://dummyimage.com/138x100.png/dddddd/000000","phone":"195-699-5034"},
{"id":14,"name":"Harli Gother","service":"Assistant Professor","location":"Room 961","rating":5,"profileImage":"http://dummyimage.com/174x100.png/cc0000/ffffff","phone":"450-419-2854"},
{"id":15,"name":"Dewie O'Regan","service":"Programmer Analyst III","location":"Suite 19","rating":3,"profileImage":"http://dummyimage.com/171x100.png/ff4444/ffffff","phone":"498-515-7406"},
{"id":16,"name":"Lowe Samwell","service":"Financial Analyst","location":"Suite 18","rating":2,"profileImage":"http://dummyimage.com/148x100.png/5fa2dd/ffffff","phone":"935-101-3519"},
{"id":17,"name":"Kalinda Macbeth","service":"Sales Representative","location":"Room 95","rating":1,"profileImage":"http://dummyimage.com/147x100.png/dddddd/000000","phone":"688-140-4726"},
{"id":18,"name":"Roxy Waker","service":"Budget/Accounting Analyst II","location":"PO Box 43559","rating":5,"profileImage":"http://dummyimage.com/147x100.png/5fa2dd/ffffff","phone":"497-158-0935"},
{"id":19,"name":"Randal Spondley","service":"GIS Technical Architect","location":"4th Floor","rating":3,"profileImage":"http://dummyimage.com/171x100.png/5fa2dd/ffffff","phone":"554-463-2951"},
{"id":20,"name":"Jeffrey Dearness","service":"Technical Writer","location":"Suite 77","rating":2,"profileImage":"http://dummyimage.com/135x100.png/dddddd/000000","phone":"792-955-0779"},
{"id":21,"name":"Kaitlyn Caustic","service":"Software Test Engineer III","location":"12th Floor","rating":2,"profileImage":"http://dummyimage.com/240x100.png/5fa2dd/ffffff","phone":"328-283-4122"},
{"id":22,"name":"Antonella Burmingham","service":"Electrical Engineer","location":"Apt 1267","rating":3,"profileImage":"http://dummyimage.com/239x100.png/5fa2dd/ffffff","phone":"177-949-9237"},
{"id":23,"name":"Felicity Mielnik","service":"Programmer I","location":"Suite 36","rating":3,"profileImage":"http://dummyimage.com/198x100.png/5fa2dd/ffffff","phone":"104-796-6663"},
{"id":24,"name":"Ellissa Pellingar","service":"Registered Nurse","location":"Apt 319","rating":2,"profileImage":"http://dummyimage.com/145x100.png/cc0000/ffffff","phone":"718-665-0291"},
{"id":25,"name":"Leela McGowran","service":"Assistant Professor","location":"PO Box 6497","rating":2,"profileImage":"http://dummyimage.com/192x100.png/5fa2dd/ffffff","phone":"901-938-5921"},
{"id":26,"name":"Gian Toplis","service":"Account Representative III","location":"Apt 935","rating":4,"profileImage":"http://dummyimage.com/240x100.png/5fa2dd/ffffff","phone":"428-445-9501"},
{"id":27,"name":"Thalia Jendas","service":"Help Desk Operator","location":"Apt 1198","rating":1,"profileImage":"http://dummyimage.com/176x100.png/5fa2dd/ffffff","phone":"285-550-4825"},
{"id":28,"name":"Suzie Kinkade","service":"Payment Adjustment Coordinator","location":"Apt 1751","rating":2,"profileImage":"http://dummyimage.com/225x100.png/5fa2dd/ffffff","phone":"275-282-6834"},
{"id":29,"name":"Rochell Larking","service":"Automation Specialist IV","location":"Suite 74","rating":5,"profileImage":"http://dummyimage.com/227x100.png/ff4444/ffffff","phone":"312-338-8270"},
{"id":30,"name":"Almire Tarpey","service":"Financial Advisor","location":"Suite 22","rating":2,"profileImage":"http://dummyimage.com/102x100.png/cc0000/ffffff","phone":"480-761-2004"},
{"id":31,"name":"Thorsten Robson","service":"Human Resources Assistant II","location":"Room 186","rating":4,"profileImage":"http://dummyimage.com/174x100.png/dddddd/000000","phone":"822-103-1243"},
{"id":32,"name":"Elvira Slyford","service":"Project Manager","location":"14th Floor","rating":2,"profileImage":"http://dummyimage.com/118x100.png/ff4444/ffffff","phone":"788-557-8127"},
{"id":33,"name":"Luise Tunnick","service":"Statistician III","location":"18th Floor","rating":4,"profileImage":"http://dummyimage.com/134x100.png/ff4444/ffffff","phone":"248-932-9047"},
{"id":34,"name":"Anna Petrollo","service":"Senior Sales Associate","location":"PO Box 19583","rating":5,"profileImage":"http://dummyimage.com/211x100.png/ff4444/ffffff","phone":"878-238-6308"},
{"id":35,"name":"Hildegaard Shearsby","service":"Web Designer II","location":"Suite 88","rating":5,"profileImage":"http://dummyimage.com/138x100.png/dddddd/000000","phone":"373-419-1131"},
{"id":36,"name":"Sheeree Guiett","service":"Actuary","location":"PO Box 25182","rating":4,"profileImage":"http://dummyimage.com/142x100.png/5fa2dd/ffffff","phone":"303-204-4813"},
{"id":37,"name":"Isiahi Muehler","service":"Programmer Analyst III","location":"PO Box 59572","rating":4,"profileImage":"http://dummyimage.com/188x100.png/ff4444/ffffff","phone":"295-477-7833"},
{"id":38,"name":"Lorant Maddison","service":"Administrative Assistant III","location":"Room 1351","rating":2,"profileImage":"http://dummyimage.com/241x100.png/cc0000/ffffff","phone":"473-926-8792"},
{"id":39,"name":"Lorie Sillwood","service":"Marketing Assistant","location":"Suite 100","rating":4,"profileImage":"http://dummyimage.com/219x100.png/ff4444/ffffff","phone":"849-209-6840"},
{"id":40,"name":"Grazia Deyes","service":"Structural Engineer","location":"Room 1882","rating":5,"profileImage":"http://dummyimage.com/212x100.png/ff4444/ffffff","phone":"166-963-3275"},
{"id":41,"name":"Kat O'Riordan","service":"Systems Administrator III","location":"4th Floor","rating":3,"profileImage":"http://dummyimage.com/249x100.png/ff4444/ffffff","phone":"492-472-0676"},
{"id":42,"name":"Thibaud Lorait","service":"Design Engineer","location":"Apt 1888","rating":1,"profileImage":"http://dummyimage.com/170x100.png/dddddd/000000","phone":"396-646-0330"},
{"id":43,"name":"Lowe Job","service":"Assistant Manager","location":"Suite 75","rating":1,"profileImage":"http://dummyimage.com/187x100.png/ff4444/ffffff","phone":"739-299-7913"},
{"id":44,"name":"Kikelia Kleinstub","service":"Nuclear Power Engineer","location":"Suite 82","rating":1,"profileImage":"http://dummyimage.com/248x100.png/ff4444/ffffff","phone":"395-693-1670"},
{"id":45,"name":"Pepe Daymont","service":"GIS Technical Architect","location":"Room 879","rating":2,"profileImage":"http://dummyimage.com/150x100.png/cc0000/ffffff","phone":"700-279-2898"},
{"id":46,"name":"Portia Lehrahan","service":"GIS Technical Architect","location":"Room 122","rating":3,"profileImage":"http://dummyimage.com/119x100.png/5fa2dd/ffffff","phone":"571-846-6262"},
{"id":47,"name":"Gwenora Mattiato","service":"VP Product Management","location":"Room 1207","rating":3,"profileImage":"http://dummyimage.com/191x100.png/dddddd/000000","phone":"643-891-6782"},
{"id":48,"name":"Jacquenette Platt","service":"Payment Adjustment Coordinator","location":"13th Floor","rating":2,"profileImage":"http://dummyimage.com/177x100.png/cc0000/ffffff","phone":"411-472-5912"},
{"id":49,"name":"Sigismond Hovert","service":"Research Assistant IV","location":"17th Floor","rating":2,"profileImage":"http://dummyimage.com/130x100.png/5fa2dd/ffffff","phone":"584-240-3823"},
{"id":50,"name":"Bethany Burree","service":"Data Coordinator","location":"19th Floor","rating":4,"profileImage":"http://dummyimage.com/155x100.png/cc0000/ffffff","phone":"822-614-7929"},
{"id":51,"name":"Norene Godbold","service":"Computer Systems Analyst II","location":"Apt 1713","rating":1,"profileImage":"http://dummyimage.com/228x100.png/dddddd/000000","phone":"875-595-6946"},
{"id":52,"name":"Wendi Kern","service":"Environmental Specialist","location":"Room 1644","rating":4,"profileImage":"http://dummyimage.com/164x100.png/ff4444/ffffff","phone":"610-877-6098"},
{"id":53,"name":"Gasparo Geeson","service":"Junior Executive","location":"PO Box 97013","rating":1,"profileImage":"http://dummyimage.com/173x100.png/5fa2dd/ffffff","phone":"970-763-3454"},
{"id":54,"name":"Jonah Sine","service":"Pharmacist","location":"Suite 78","rating":1,"profileImage":"http://dummyimage.com/156x100.png/dddddd/000000","phone":"533-428-0424"},
{"id":55,"name":"Dory Puckring","service":"Senior Sales Associate","location":"Room 936","rating":2,"profileImage":"http://dummyimage.com/179x100.png/cc0000/ffffff","phone":"186-228-1879"},
{"id":56,"name":"Aloise Coveney","service":"Administrative Officer","location":"Suite 43","rating":4,"profileImage":"http://dummyimage.com/245x100.png/ff4444/ffffff","phone":"952-578-4699"},
{"id":57,"name":"Ced Stonard","service":"Engineer I","location":"PO Box 907","rating":5,"profileImage":"http://dummyimage.com/153x100.png/5fa2dd/ffffff","phone":"285-973-8175"},
{"id":58,"name":"Madel Woodroofe","service":"Programmer III","location":"Apt 995","rating":3,"profileImage":"http://dummyimage.com/117x100.png/ff4444/ffffff","phone":"740-689-3079"},
{"id":59,"name":"Zorana McCray","service":"Teacher","location":"Apt 46","rating":3,"profileImage":"http://dummyimage.com/144x100.png/dddddd/000000","phone":"976-378-5933"},
{"id":60,"name":"Fredi Armes","service":"Systems Administrator II","location":"Suite 61","rating":4,"profileImage":"http://dummyimage.com/200x100.png/ff4444/ffffff","phone":"310-351-5243"},
{"id":61,"name":"Elvina Godly","service":"Quality Engineer","location":"Suite 39","rating":1,"profileImage":"http://dummyimage.com/203x100.png/5fa2dd/ffffff","phone":"864-680-8546"},
{"id":62,"name":"Moyra Elder","service":"Junior Executive","location":"Apt 70","rating":4,"profileImage":"http://dummyimage.com/184x100.png/ff4444/ffffff","phone":"147-214-7051"},
{"id":63,"name":"Lek Banck","service":"Engineer II","location":"13th Floor","rating":5,"profileImage":"http://dummyimage.com/242x100.png/ff4444/ffffff","phone":"250-970-0022"},
{"id":64,"name":"Jorey Shama","service":"Librarian","location":"Suite 53","rating":3,"profileImage":"http://dummyimage.com/113x100.png/5fa2dd/ffffff","phone":"740-721-0498"},
{"id":65,"name":"Marijn Meekings","service":"Pharmacist","location":"PO Box 30927","rating":4,"profileImage":"http://dummyimage.com/198x100.png/dddddd/000000","phone":"130-274-0802"},
{"id":66,"name":"Toby Dekeyser","service":"VP Accounting","location":"16th Floor","rating":2,"profileImage":"http://dummyimage.com/223x100.png/ff4444/ffffff","phone":"553-357-3603"},
{"id":67,"name":"Ailee Bunclark","service":"Sales Associate","location":"PO Box 43344","rating":5,"profileImage":"http://dummyimage.com/198x100.png/5fa2dd/ffffff","phone":"243-925-0901"},
{"id":68,"name":"Ancell Di Napoli","service":"Clinical Specialist","location":"PO Box 47484","rating":4,"profileImage":"http://dummyimage.com/249x100.png/dddddd/000000","phone":"168-829-1501"},
{"id":69,"name":"Nariko Rodd","service":"Marketing Assistant","location":"PO Box 82507","rating":1,"profileImage":"http://dummyimage.com/191x100.png/cc0000/ffffff","phone":"382-488-9357"},
{"id":70,"name":"Madalyn Karleman","service":"Research Nurse","location":"14th Floor","rating":4,"profileImage":"http://dummyimage.com/181x100.png/ff4444/ffffff","phone":"784-186-1793"},
{"id":71,"name":"Hartwell Durrans","service":"Operator","location":"PO Box 35630","rating":3,"profileImage":"http://dummyimage.com/142x100.png/cc0000/ffffff","phone":"448-960-4601"},
{"id":72,"name":"Serena Hagyard","service":"Mechanical Systems Engineer","location":"Room 1397","rating":4,"profileImage":"http://dummyimage.com/115x100.png/cc0000/ffffff","phone":"483-590-0925"},
{"id":73,"name":"Carissa Holsey","service":"Safety Technician I","location":"PO Box 22500","rating":3,"profileImage":"http://dummyimage.com/176x100.png/5fa2dd/ffffff","phone":"865-824-0472"},
{"id":74,"name":"Arleyne Stansall","service":"Dental Hygienist","location":"Apt 1464","rating":3,"profileImage":"http://dummyimage.com/197x100.png/5fa2dd/ffffff","phone":"110-489-5284"},
{"id":75,"name":"Marv Munns","service":"VP Quality Control","location":"Room 1877","rating":4,"profileImage":"http://dummyimage.com/159x100.png/dddddd/000000","phone":"982-645-3547"},
{"id":76,"name":"Marlin Lane","service":"Design Engineer","location":"PO Box 91648","rating":3,"profileImage":"http://dummyimage.com/210x100.png/ff4444/ffffff","phone":"985-862-1677"},
{"id":77,"name":"Kalle Ivashov","service":"Media Manager II","location":"3rd Floor","rating":1,"profileImage":"http://dummyimage.com/194x100.png/ff4444/ffffff","phone":"576-202-1294"},
{"id":78,"name":"Kelcie Markovich","service":"Accountant I","location":"Apt 651","rating":2,"profileImage":"http://dummyimage.com/244x100.png/5fa2dd/ffffff","phone":"463-518-2845"},
{"id":79,"name":"Kirsten Rosone","service":"Community Outreach Specialist","location":"Room 440","rating":1,"profileImage":"http://dummyimage.com/190x100.png/dddddd/000000","phone":"605-161-3729"},
{"id":80,"name":"Jane Corringham","service":"Recruiting Manager","location":"Suite 44","rating":2,"profileImage":"http://dummyimage.com/189x100.png/5fa2dd/ffffff","phone":"500-882-9255"},
{"id":81,"name":"Hi Roycroft","service":"Software Engineer II","location":"Suite 6","rating":2,"profileImage":"http://dummyimage.com/185x100.png/ff4444/ffffff","phone":"183-390-6127"},
{"id":82,"name":"Bambie Blakeley","service":"Speech Pathologist","location":"Suite 93","rating":1,"profileImage":"http://dummyimage.com/245x100.png/ff4444/ffffff","phone":"241-318-3677"},
{"id":83,"name":"Millicent Hammon","service":"Chemical Engineer","location":"Apt 1799","rating":1,"profileImage":"http://dummyimage.com/170x100.png/cc0000/ffffff","phone":"793-911-1744"},
{"id":84,"name":"Lynea Benbough","service":"Teacher","location":"Room 1285","rating":1,"profileImage":"http://dummyimage.com/215x100.png/5fa2dd/ffffff","phone":"699-149-2003"},
{"id":85,"name":"Rochell Mulles","service":"Teacher","location":"18th Floor","rating":5,"profileImage":"http://dummyimage.com/128x100.png/cc0000/ffffff","phone":"408-769-2931"},
{"id":86,"name":"Abigale Twiggins","service":"Recruiter","location":"Suite 63","rating":5,"profileImage":"http://dummyimage.com/150x100.png/cc0000/ffffff","phone":"602-620-5429"},
{"id":87,"name":"Florry Szymanski","service":"Nurse Practicioner","location":"Apt 1202","rating":3,"profileImage":"http://dummyimage.com/240x100.png/dddddd/000000","phone":"332-564-2801"},
{"id":88,"name":"Revkah Simakov","service":"Help Desk Operator","location":"Suite 36","rating":1,"profileImage":"http://dummyimage.com/234x100.png/ff4444/ffffff","phone":"296-188-3012"},
{"id":89,"name":"Waverly Trever","service":"VP Quality Control","location":"Apt 1872","rating":1,"profileImage":"http://dummyimage.com/196x100.png/cc0000/ffffff","phone":"909-339-7586"},
{"id":90,"name":"Gipsy Josum","service":"Product Engineer","location":"6th Floor","rating":5,"profileImage":"http://dummyimage.com/238x100.png/5fa2dd/ffffff","phone":"730-844-8253"},
{"id":91,"name":"Ahmad Constance","service":"Senior Quality Engineer","location":"Room 252","rating":3,"profileImage":"http://dummyimage.com/165x100.png/5fa2dd/ffffff","phone":"319-835-5206"},
{"id":92,"name":"Dacy Barkess","service":"Health Coach I","location":"Apt 1820","rating":3,"profileImage":"http://dummyimage.com/150x100.png/cc0000/ffffff","phone":"657-749-5709"},
{"id":93,"name":"Romona Fairham","service":"Executive Secretary","location":"Suite 31","rating":1,"profileImage":"http://dummyimage.com/139x100.png/dddddd/000000","phone":"431-365-2655"},
{"id":94,"name":"Astrid McEntee","service":"Quality Control Specialist","location":"Apt 1553","rating":3,"profileImage":"http://dummyimage.com/133x100.png/cc0000/ffffff","phone":"284-346-6057"},
{"id":95,"name":"Rey Smithe","service":"Media Manager I","location":"15th Floor","rating":1,"profileImage":"http://dummyimage.com/150x100.png/5fa2dd/ffffff","phone":"182-381-9848"},
{"id":96,"name":"Layne Howsan","service":"Occupational Therapist","location":"Room 965","rating":1,"profileImage":"http://dummyimage.com/232x100.png/5fa2dd/ffffff","phone":"709-282-1187"},
{"id":97,"name":"Patsy Auletta","service":"Administrative Officer","location":"Apt 1016","rating":2,"profileImage":"http://dummyimage.com/170x100.png/cc0000/ffffff","phone":"405-748-7880"},
{"id":98,"name":"Xymenes Vittel","service":"GIS Technical Architect","location":"Room 847","rating":5,"profileImage":"http://dummyimage.com/191x100.png/cc0000/ffffff","phone":"766-687-4966"},
{"id":99,"name":"Gill Yakovl","service":"Staff Accountant III","location":"Apt 1533","rating":4,"profileImage":"http://dummyimage.com/153x100.png/ff4444/ffffff","phone":"687-859-0008"},
{"id":100,"name":"Rollie Casserley","service":"Senior Developer","location":"Apt 1407","rating":1,"profileImage":"http://dummyimage.com/147x100.png/cc0000/ffffff","phone":"496-183-4670"},
{"id":101,"name":"Johannah Littler","service":"Executive Secretary","location":"PO Box 22769","rating":1,"profileImage":"http://dummyimage.com/126x100.png/dddddd/000000","phone":"945-580-7700"},
{"id":102,"name":"Florida Manneville","service":"Mechanical Systems Engineer","location":"PO Box 23901","rating":2,"profileImage":"http://dummyimage.com/176x100.png/ff4444/ffffff","phone":"528-468-2053"},
{"id":103,"name":"Jay Davenall","service":"Analog Circuit Design manager","location":"9th Floor","rating":1,"profileImage":"http://dummyimage.com/192x100.png/dddddd/000000","phone":"772-645-1279"},
{"id":104,"name":"Sidonnie Millican","service":"Clinical Specialist","location":"Suite 28","rating":3,"profileImage":"http://dummyimage.com/133x100.png/cc0000/ffffff","phone":"995-723-3424"},
{"id":105,"name":"Rik Swayte","service":"Community Outreach Specialist","location":"10th Floor","rating":1,"profileImage":"http://dummyimage.com/208x100.png/dddddd/000000","phone":"775-668-8200"},
{"id":106,"name":"Phyllis Knights","service":"Software Consultant","location":"16th Floor","rating":4,"profileImage":"http://dummyimage.com/188x100.png/cc0000/ffffff","phone":"433-562-6197"},
{"id":107,"name":"Drugi Haste","service":"Associate Professor","location":"Apt 1107","rating":5,"profileImage":"http://dummyimage.com/228x100.png/dddddd/000000","phone":"158-140-2697"},
{"id":108,"name":"Melisent Creed","service":"Automation Specialist III","location":"1st Floor","rating":4,"profileImage":"http://dummyimage.com/136x100.png/cc0000/ffffff","phone":"732-734-7482"},
{"id":109,"name":"Letta Woodeson","service":"Librarian","location":"Room 780","rating":5,"profileImage":"http://dummyimage.com/131x100.png/cc0000/ffffff","phone":"211-594-8454"},
{"id":110,"name":"Donna Sones","service":"Quality Engineer","location":"Apt 1027","rating":2,"profileImage":"http://dummyimage.com/230x100.png/cc0000/ffffff","phone":"231-708-2198"},
{"id":111,"name":"Willy Sprouls","service":"Developer IV","location":"Suite 26","rating":1,"profileImage":"http://dummyimage.com/135x100.png/5fa2dd/ffffff","phone":"945-960-6890"},
{"id":112,"name":"Donovan Bielfeldt","service":"Recruiting Manager","location":"Suite 14","rating":5,"profileImage":"http://dummyimage.com/244x100.png/5fa2dd/ffffff","phone":"372-329-9469"},
{"id":113,"name":"Matty Attwater","service":"Teacher","location":"7th Floor","rating":4,"profileImage":"http://dummyimage.com/177x100.png/ff4444/ffffff","phone":"279-903-9323"},
{"id":114,"name":"Nerty Neathway","service":"Editor","location":"PO Box 26618","rating":3,"profileImage":"http://dummyimage.com/227x100.png/5fa2dd/ffffff","phone":"696-339-8294"},
{"id":115,"name":"Kiley Ellul","service":"Director of Sales","location":"PO Box 26313","rating":5,"profileImage":"http://dummyimage.com/215x100.png/cc0000/ffffff","phone":"221-850-8340"},
{"id":116,"name":"Linn Goodban","service":"Help Desk Technician","location":"Apt 744","rating":1,"profileImage":"http://dummyimage.com/226x100.png/ff4444/ffffff","phone":"183-907-7385"},
{"id":117,"name":"Steward Deelay","service":"Data Coordinator","location":"13th Floor","rating":4,"profileImage":"http://dummyimage.com/238x100.png/cc0000/ffffff","phone":"924-572-2527"},
{"id":118,"name":"Leon Wells","service":"VP Sales","location":"PO Box 86854","rating":2,"profileImage":"http://dummyimage.com/198x100.png/5fa2dd/ffffff","phone":"158-496-3582"},
{"id":119,"name":"Jared Stockport","service":"Geological Engineer","location":"20th Floor","rating":2,"profileImage":"http://dummyimage.com/129x100.png/ff4444/ffffff","phone":"970-692-8157"},
{"id":120,"name":"Phil Berens","service":"Electrical Engineer","location":"PO Box 64388","rating":5,"profileImage":"http://dummyimage.com/119x100.png/5fa2dd/ffffff","phone":"594-402-1627"},
{"id":121,"name":"Falito Fazan","service":"Staff Accountant I","location":"Room 1665","rating":4,"profileImage":"http://dummyimage.com/175x100.png/5fa2dd/ffffff","phone":"796-387-2466"},
{"id":122,"name":"Tiertza Castelyn","service":"Financial Advisor","location":"Suite 87","rating":1,"profileImage":"http://dummyimage.com/162x100.png/dddddd/000000","phone":"587-699-0840"},
{"id":123,"name":"Hamel Naismith","service":"Tax Accountant","location":"Apt 1111","rating":4,"profileImage":"http://dummyimage.com/163x100.png/ff4444/ffffff","phone":"838-969-9763"},
{"id":124,"name":"Towny Nockalls","service":"Cost Accountant","location":"Room 525","rating":5,"profileImage":"http://dummyimage.com/165x100.png/dddddd/000000","phone":"823-482-8755"},
{"id":125,"name":"Rossie Tunstall","service":"Developer I","location":"Room 689","rating":3,"profileImage":"http://dummyimage.com/227x100.png/5fa2dd/ffffff","phone":"674-260-7184"},
{"id":126,"name":"Salomon Lindhe","service":"Account Representative IV","location":"Room 1112","rating":2,"profileImage":"http://dummyimage.com/195x100.png/cc0000/ffffff","phone":"729-747-8066"},
{"id":127,"name":"Chicky Enderby","service":"Account Executive","location":"11th Floor","rating":2,"profileImage":"http://dummyimage.com/171x100.png/5fa2dd/ffffff","phone":"750-792-6880"},
{"id":128,"name":"Chantal Davio","service":"Programmer II","location":"18th Floor","rating":4,"profileImage":"http://dummyimage.com/101x100.png/cc0000/ffffff","phone":"688-839-7012"},
{"id":129,"name":"Clio Lathey","service":"Marketing Assistant","location":"Apt 1441","rating":2,"profileImage":"http://dummyimage.com/110x100.png/cc0000/ffffff","phone":"502-545-6948"},
{"id":130,"name":"Angil Govern","service":"Civil Engineer","location":"Suite 61","rating":3,"profileImage":"http://dummyimage.com/103x100.png/5fa2dd/ffffff","phone":"447-919-4523"},
{"id":131,"name":"Almire Scouller","service":"Registered Nurse","location":"5th Floor","rating":2,"profileImage":"http://dummyimage.com/197x100.png/5fa2dd/ffffff","phone":"237-829-4583"},
{"id":132,"name":"Cindi Staunton","service":"Nurse","location":"PO Box 51522","rating":2,"profileImage":"http://dummyimage.com/110x100.png/ff4444/ffffff","phone":"627-429-1024"},
{"id":133,"name":"Georas Choake","service":"Database Administrator I","location":"17th Floor","rating":3,"profileImage":"http://dummyimage.com/200x100.png/dddddd/000000","phone":"699-641-5314"},
{"id":134,"name":"Bobbee Posthill","service":"Chemical Engineer","location":"Suite 9","rating":5,"profileImage":"http://dummyimage.com/195x100.png/cc0000/ffffff","phone":"907-624-4350"},
{"id":135,"name":"Carlie Jerzak","service":"Safety Technician III","location":"PO Box 81473","rating":1,"profileImage":"http://dummyimage.com/136x100.png/5fa2dd/ffffff","phone":"795-383-1060"},
{"id":136,"name":"Jules Clopton","service":"Statistician IV","location":"Room 2000","rating":4,"profileImage":"http://dummyimage.com/129x100.png/cc0000/ffffff","phone":"564-839-6126"},
{"id":137,"name":"Etty Medmore","service":"Assistant Media Planner","location":"Apt 1464","rating":3,"profileImage":"http://dummyimage.com/226x100.png/cc0000/ffffff","phone":"878-795-5854"},
{"id":138,"name":"Geralda Benard","service":"Environmental Specialist","location":"PO Box 3624","rating":3,"profileImage":"http://dummyimage.com/238x100.png/ff4444/ffffff","phone":"901-490-7663"},
{"id":139,"name":"Kathryn Robardley","service":"Cost Accountant","location":"Suite 16","rating":1,"profileImage":"http://dummyimage.com/222x100.png/ff4444/ffffff","phone":"401-220-8145"},
{"id":140,"name":"Ulrich Cawson","service":"Software Engineer IV","location":"Apt 1928","rating":5,"profileImage":"http://dummyimage.com/189x100.png/5fa2dd/ffffff","phone":"337-563-9514"},
{"id":141,"name":"Manolo Herity","service":"Assistant Media Planner","location":"Apt 814","rating":3,"profileImage":"http://dummyimage.com/244x100.png/cc0000/ffffff","phone":"731-251-0677"},
{"id":142,"name":"Sheridan Ellissen","service":"Compensation Analyst","location":"PO Box 82448","rating":2,"profileImage":"http://dummyimage.com/134x100.png/cc0000/ffffff","phone":"621-254-9966"},
{"id":143,"name":"Olympie Tomes","service":"Tax Accountant","location":"Suite 33","rating":1,"profileImage":"http://dummyimage.com/195x100.png/5fa2dd/ffffff","phone":"208-865-7579"},
{"id":144,"name":"Fairleigh Whittek","service":"Accountant III","location":"Suite 96","rating":2,"profileImage":"http://dummyimage.com/220x100.png/dddddd/000000","phone":"320-751-4384"},
{"id":145,"name":"Desiree Nealon","service":"Administrative Officer","location":"Suite 32","rating":4,"profileImage":"http://dummyimage.com/111x100.png/dddddd/000000","phone":"183-917-5965"},
{"id":146,"name":"Maxie Hoolaghan","service":"Occupational Therapist","location":"Room 1533","rating":5,"profileImage":"http://dummyimage.com/208x100.png/dddddd/000000","phone":"929-683-4366"},
{"id":147,"name":"Chery MacCaughan","service":"Web Developer II","location":"PO Box 56287","rating":3,"profileImage":"http://dummyimage.com/227x100.png/5fa2dd/ffffff","phone":"131-569-6680"},
{"id":148,"name":"Meggy Aphale","service":"Librarian","location":"PO Box 10643","rating":3,"profileImage":"http://dummyimage.com/183x100.png/dddddd/000000","phone":"754-314-5538"},
{"id":149,"name":"Ginnifer Bolver","service":"Biostatistician IV","location":"Suite 44","rating":2,"profileImage":"http://dummyimage.com/108x100.png/ff4444/ffffff","phone":"749-887-7664"},
{"id":150,"name":"Herc Pashby","service":"Analog Circuit Design manager","location":"PO Box 74700","rating":4,"profileImage":"http://dummyimage.com/237x100.png/cc0000/ffffff","phone":"958-707-5574"},
{"id":151,"name":"Valentino Cultcheth","service":"Director of Sales","location":"Room 354","rating":1,"profileImage":"http://dummyimage.com/108x100.png/cc0000/ffffff","phone":"778-185-1714"},
{"id":152,"name":"Nannette McGenis","service":"Geological Engineer","location":"Room 191","rating":4,"profileImage":"http://dummyimage.com/122x100.png/cc0000/ffffff","phone":"352-479-3674"},
{"id":153,"name":"Cody Kopec","service":"Senior Sales Associate","location":"Suite 42","rating":3,"profileImage":"http://dummyimage.com/157x100.png/ff4444/ffffff","phone":"275-529-8802"},
{"id":154,"name":"Horton Penhallurick","service":"Mechanical Systems Engineer","location":"Apt 1943","rating":1,"profileImage":"http://dummyimage.com/149x100.png/ff4444/ffffff","phone":"188-281-1651"},
{"id":155,"name":"Jefferey Tapley","service":"Staff Scientist","location":"Apt 1025","rating":3,"profileImage":"http://dummyimage.com/247x100.png/cc0000/ffffff","phone":"326-852-0812"},
{"id":156,"name":"Forbes Servant","service":"Geologist IV","location":"Suite 55","rating":2,"profileImage":"http://dummyimage.com/235x100.png/ff4444/ffffff","phone":"967-959-4553"},
{"id":157,"name":"Marris Di Angelo","service":"GIS Technical Architect","location":"Apt 426","rating":5,"profileImage":"http://dummyimage.com/184x100.png/ff4444/ffffff","phone":"961-376-4674"},
{"id":158,"name":"Yankee Stuckley","service":"Actuary","location":"Suite 59","rating":2,"profileImage":"http://dummyimage.com/209x100.png/ff4444/ffffff","phone":"583-880-6097"},
{"id":159,"name":"Hinze Kedward","service":"Community Outreach Specialist","location":"PO Box 63034","rating":1,"profileImage":"http://dummyimage.com/160x100.png/cc0000/ffffff","phone":"261-362-9544"},
{"id":160,"name":"Bowie Heffernon","service":"Accountant I","location":"PO Box 71072","rating":4,"profileImage":"http://dummyimage.com/134x100.png/cc0000/ffffff","phone":"621-569-2914"},
{"id":161,"name":"Anett Cawthra","service":"GIS Technical Architect","location":"PO Box 29056","rating":2,"profileImage":"http://dummyimage.com/228x100.png/dddddd/000000","phone":"887-314-8322"},
{"id":162,"name":"Brita Garth","service":"Environmental Tech","location":"Room 246","rating":5,"profileImage":"http://dummyimage.com/192x100.png/cc0000/ffffff","phone":"198-768-5711"},
{"id":163,"name":"Burk McTaggart","service":"VP Product Management","location":"18th Floor","rating":4,"profileImage":"http://dummyimage.com/240x100.png/cc0000/ffffff","phone":"729-426-8414"},
{"id":164,"name":"Philly Scotney","service":"Internal Auditor","location":"Room 1436","rating":5,"profileImage":"http://dummyimage.com/145x100.png/cc0000/ffffff","phone":"274-180-1914"},
{"id":165,"name":"Koren Worsalls","service":"Administrative Assistant III","location":"Apt 416","rating":2,"profileImage":"http://dummyimage.com/113x100.png/5fa2dd/ffffff","phone":"834-593-1844"},
{"id":166,"name":"Lindsy Cassely","service":"Physical Therapy Assistant","location":"Apt 1598","rating":3,"profileImage":"http://dummyimage.com/148x100.png/5fa2dd/ffffff","phone":"357-868-1060"},
{"id":167,"name":"Cory Bibb","service":"Actuary","location":"16th Floor","rating":4,"profileImage":"http://dummyimage.com/179x100.png/cc0000/ffffff","phone":"780-111-7890"},
{"id":168,"name":"Erek Lorens","service":"Systems Administrator IV","location":"PO Box 62057","rating":1,"profileImage":"http://dummyimage.com/234x100.png/ff4444/ffffff","phone":"303-636-2630"},
{"id":169,"name":"Delila MacAndrew","service":"Assistant Professor","location":"PO Box 90657","rating":5,"profileImage":"http://dummyimage.com/129x100.png/cc0000/ffffff","phone":"344-213-6463"},
{"id":170,"name":"Eugenius Knappett","service":"Executive Secretary","location":"13th Floor","rating":2,"profileImage":"http://dummyimage.com/157x100.png/5fa2dd/ffffff","phone":"159-312-4086"},
{"id":171,"name":"Teodoro Garlette","service":"Internal Auditor","location":"PO Box 51914","rating":1,"profileImage":"http://dummyimage.com/143x100.png/cc0000/ffffff","phone":"806-561-1446"},
{"id":172,"name":"Hoyt Toland","service":"Junior Executive","location":"18th Floor","rating":4,"profileImage":"http://dummyimage.com/232x100.png/dddddd/000000","phone":"209-689-6747"},
{"id":173,"name":"Jillayne Astill","service":"Social Worker","location":"Suite 6","rating":2,"profileImage":"http://dummyimage.com/242x100.png/cc0000/ffffff","phone":"951-198-2366"},
{"id":174,"name":"Tiffani Maliphant","service":"Compensation Analyst","location":"Room 1314","rating":4,"profileImage":"http://dummyimage.com/228x100.png/5fa2dd/ffffff","phone":"752-928-8968"},
{"id":175,"name":"Abdel Denham","service":"Software Engineer I","location":"6th Floor","rating":2,"profileImage":"http://dummyimage.com/189x100.png/ff4444/ffffff","phone":"932-193-7884"},
{"id":176,"name":"Mommy Fanton","service":"Budget/Accounting Analyst III","location":"Apt 43","rating":2,"profileImage":"http://dummyimage.com/231x100.png/dddddd/000000","phone":"497-491-1462"},
{"id":177,"name":"Liesa Brace","service":"Assistant Media Planner","location":"Room 818","rating":4,"profileImage":"http://dummyimage.com/192x100.png/dddddd/000000","phone":"350-573-2175"},
{"id":178,"name":"Hewitt Bulfit","service":"Librarian","location":"Room 1519","rating":2,"profileImage":"http://dummyimage.com/240x100.png/5fa2dd/ffffff","phone":"693-322-4403"},
{"id":179,"name":"Estrella Kemmett","service":"Speech Pathologist","location":"PO Box 8563","rating":5,"profileImage":"http://dummyimage.com/137x100.png/5fa2dd/ffffff","phone":"795-449-6156"},
{"id":180,"name":"Shelby Senior","service":"Tax Accountant","location":"Apt 1482","rating":1,"profileImage":"http://dummyimage.com/157x100.png/dddddd/000000","phone":"709-352-3480"},
{"id":181,"name":"Torie Alyokhin","service":"Administrative Assistant IV","location":"Room 703","rating":3,"profileImage":"http://dummyimage.com/236x100.png/dddddd/000000","phone":"314-962-8866"},
{"id":182,"name":"Myron Carrington","service":"Nurse","location":"PO Box 39280","rating":2,"profileImage":"http://dummyimage.com/177x100.png/dddddd/000000","phone":"327-402-3847"},
{"id":183,"name":"Dianemarie O'Gorman","service":"Software Test Engineer III","location":"Suite 61","rating":2,"profileImage":"http://dummyimage.com/233x100.png/ff4444/ffffff","phone":"788-120-8945"},
{"id":184,"name":"Gloriana Bosket","service":"Marketing Assistant","location":"Apt 1542","rating":4,"profileImage":"http://dummyimage.com/150x100.png/cc0000/ffffff","phone":"670-772-9656"},
{"id":185,"name":"Fey Graalman","service":"Desktop Support Technician","location":"PO Box 26541","rating":5,"profileImage":"http://dummyimage.com/196x100.png/dddddd/000000","phone":"307-882-9235"},
{"id":186,"name":"Natala Stainburn","service":"Administrative Officer","location":"Suite 64","rating":4,"profileImage":"http://dummyimage.com/249x100.png/ff4444/ffffff","phone":"218-619-3370"},
{"id":187,"name":"Fulvia Wyvill","service":"Account Executive","location":"PO Box 28179","rating":3,"profileImage":"http://dummyimage.com/128x100.png/dddddd/000000","phone":"302-611-1826"},
{"id":188,"name":"Rustin Avard","service":"General Manager","location":"17th Floor","rating":1,"profileImage":"http://dummyimage.com/203x100.png/ff4444/ffffff","phone":"195-855-1555"},
{"id":189,"name":"Pia Blackaller","service":"Junior Executive","location":"Suite 93","rating":1,"profileImage":"http://dummyimage.com/115x100.png/5fa2dd/ffffff","phone":"882-292-8932"},
{"id":190,"name":"Tessa Cossom","service":"Registered Nurse","location":"Apt 702","rating":5,"profileImage":"http://dummyimage.com/162x100.png/cc0000/ffffff","phone":"582-757-3122"},
{"id":191,"name":"Patience Cato","service":"Media Manager IV","location":"Apt 53","rating":3,"profileImage":"http://dummyimage.com/110x100.png/dddddd/000000","phone":"836-539-6018"},
{"id":192,"name":"Peterus Tomsett","service":"Actuary","location":"2nd Floor","rating":5,"profileImage":"http://dummyimage.com/107x100.png/cc0000/ffffff","phone":"681-695-3798"},
{"id":193,"name":"Rockie Nano","service":"Internal Auditor","location":"Room 524","rating":5,"profileImage":"http://dummyimage.com/180x100.png/cc0000/ffffff","phone":"705-994-7655"},
{"id":194,"name":"Lettie McGarel","service":"Nurse","location":"Suite 46","rating":4,"profileImage":"http://dummyimage.com/216x100.png/cc0000/ffffff","phone":"917-365-3366"},
{"id":195,"name":"Zulema Denzilow","service":"Associate Professor","location":"Room 1269","rating":3,"profileImage":"http://dummyimage.com/122x100.png/cc0000/ffffff","phone":"796-646-8751"},
{"id":196,"name":"Jeniece Jeaves","service":"Librarian","location":"Suite 54","rating":3,"profileImage":"http://dummyimage.com/160x100.png/ff4444/ffffff","phone":"999-203-5085"},
{"id":197,"name":"Pen Grimestone","service":"Senior Editor","location":"PO Box 50089","rating":4,"profileImage":"http://dummyimage.com/106x100.png/dddddd/000000","phone":"373-132-4901"},
{"id":198,"name":"Filide Whitby","service":"Chemical Engineer","location":"20th Floor","rating":4,"profileImage":"http://dummyimage.com/155x100.png/ff4444/ffffff","phone":"905-122-9677"},
{"id":199,"name":"Lyn Vasovic","service":"Environmental Tech","location":"Apt 78","rating":2,"profileImage":"http://dummyimage.com/160x100.png/ff4444/ffffff","phone":"356-830-0077"},
{"id":200,"name":"Roger Reame","service":"Professor","location":"18th Floor","rating":5,"profileImage":"http://dummyimage.com/148x100.png/5fa2dd/ffffff","phone":"134-717-4309"},
{"id":201,"name":"Marlene Cudmore","service":"Civil Engineer","location":"Apt 223","rating":5,"profileImage":"http://dummyimage.com/159x100.png/dddddd/000000","phone":"851-607-3265"},
{"id":202,"name":"Shawnee Hanbridge","service":"Junior Executive","location":"Room 227","rating":3,"profileImage":"http://dummyimage.com/196x100.png/5fa2dd/ffffff","phone":"225-749-5571"},
{"id":203,"name":"Bret Janjusevic","service":"Senior Sales Associate","location":"Suite 25","rating":2,"profileImage":"http://dummyimage.com/150x100.png/ff4444/ffffff","phone":"566-412-9758"},
{"id":204,"name":"Andrea Hucklesby","service":"Systems Administrator I","location":"17th Floor","rating":3,"profileImage":"http://dummyimage.com/207x100.png/cc0000/ffffff","phone":"159-510-6693"},
{"id":205,"name":"Rosabel Plastow","service":"Senior Cost Accountant","location":"Apt 411","rating":2,"profileImage":"http://dummyimage.com/173x100.png/5fa2dd/ffffff","phone":"655-959-3211"},
{"id":206,"name":"Tadeo Madgwick","service":"Account Executive","location":"3rd Floor","rating":4,"profileImage":"http://dummyimage.com/170x100.png/5fa2dd/ffffff","phone":"597-284-2993"},
{"id":207,"name":"Brynn Donahue","service":"Business Systems Development Analyst","location":"PO Box 39583","rating":1,"profileImage":"http://dummyimage.com/123x100.png/cc0000/ffffff","phone":"335-860-8969"},
{"id":208,"name":"Zuzana Brookson","service":"Legal Assistant","location":"PO Box 36340","rating":3,"profileImage":"http://dummyimage.com/229x100.png/dddddd/000000","phone":"193-906-5861"},
{"id":209,"name":"Greggory Keaveny","service":"Nurse","location":"17th Floor","rating":5,"profileImage":"http://dummyimage.com/184x100.png/cc0000/ffffff","phone":"475-223-0463"},
{"id":210,"name":"Ogdan Maccrie","service":"Geological Engineer","location":"Apt 438","rating":2,"profileImage":"http://dummyimage.com/245x100.png/dddddd/000000","phone":"588-193-8376"},
{"id":211,"name":"Eugenie Orteu","service":"Marketing Assistant","location":"PO Box 73319","rating":3,"profileImage":"http://dummyimage.com/166x100.png/5fa2dd/ffffff","phone":"336-226-3135"},
{"id":212,"name":"Benedikt Bassill","service":"Mechanical Systems Engineer","location":"PO Box 95555","rating":5,"profileImage":"http://dummyimage.com/113x100.png/ff4444/ffffff","phone":"721-144-5826"},
{"id":213,"name":"Kriste Pohling","service":"Desktop Support Technician","location":"Suite 62","rating":2,"profileImage":"http://dummyimage.com/172x100.png/5fa2dd/ffffff","phone":"331-670-0366"},
{"id":214,"name":"Lorrie Dellar","service":"Social Worker","location":"Apt 576","rating":2,"profileImage":"http://dummyimage.com/137x100.png/cc0000/ffffff","phone":"364-836-7403"},
{"id":215,"name":"Lucien Tatlow","service":"Safety Technician II","location":"Room 1510","rating":3,"profileImage":"http://dummyimage.com/204x100.png/5fa2dd/ffffff","phone":"503-682-0929"},
{"id":216,"name":"Shoshanna Peirce","service":"Financial Analyst","location":"Apt 1792","rating":1,"profileImage":"http://dummyimage.com/187x100.png/cc0000/ffffff","phone":"152-835-9040"},
{"id":217,"name":"Jerrine Zaczek","service":"Registered Nurse","location":"2nd Floor","rating":2,"profileImage":"http://dummyimage.com/193x100.png/dddddd/000000","phone":"336-121-7310"},
{"id":218,"name":"Berty Binden","service":"Database Administrator III","location":"17th Floor","rating":3,"profileImage":"http://dummyimage.com/181x100.png/cc0000/ffffff","phone":"462-707-3706"},
{"id":219,"name":"Aubrette Kent","service":"Senior Editor","location":"Suite 7","rating":5,"profileImage":"http://dummyimage.com/171x100.png/ff4444/ffffff","phone":"308-284-0727"},
{"id":220,"name":"Sydney Quenby","service":"Senior Financial Analyst","location":"Room 184","rating":2,"profileImage":"http://dummyimage.com/134x100.png/dddddd/000000","phone":"901-404-1746"},
{"id":221,"name":"Silva Balfour","service":"Quality Control Specialist","location":"Apt 722","rating":4,"profileImage":"http://dummyimage.com/151x100.png/5fa2dd/ffffff","phone":"734-305-2809"},
{"id":222,"name":"Laural Turbitt","service":"Media Manager IV","location":"PO Box 73750","rating":5,"profileImage":"http://dummyimage.com/247x100.png/cc0000/ffffff","phone":"399-701-1804"},
{"id":223,"name":"Brenn Hove","service":"Account Coordinator","location":"Apt 923","rating":2,"profileImage":"http://dummyimage.com/144x100.png/dddddd/000000","phone":"900-550-7477"},
{"id":224,"name":"Jodi Chubb","service":"Sales Associate","location":"15th Floor","rating":4,"profileImage":"http://dummyimage.com/212x100.png/ff4444/ffffff","phone":"608-299-9575"},
{"id":225,"name":"Sheree Brislan","service":"Business Systems Development Analyst","location":"Apt 20","rating":4,"profileImage":"http://dummyimage.com/162x100.png/ff4444/ffffff","phone":"460-322-8904"},
{"id":226,"name":"Wilbert Vere","service":"Human Resources Manager","location":"Room 1772","rating":5,"profileImage":"http://dummyimage.com/227x100.png/5fa2dd/ffffff","phone":"218-648-5452"},
{"id":227,"name":"Claudelle Altoft","service":"Accountant III","location":"Apt 1782","rating":3,"profileImage":"http://dummyimage.com/219x100.png/dddddd/000000","phone":"255-659-6082"},
{"id":228,"name":"Dorella Topper","service":"Structural Engineer","location":"Apt 862","rating":3,"profileImage":"http://dummyimage.com/153x100.png/ff4444/ffffff","phone":"719-467-6387"},
{"id":229,"name":"Shelly Matfin","service":"Help Desk Technician","location":"Suite 14","rating":3,"profileImage":"http://dummyimage.com/152x100.png/cc0000/ffffff","phone":"307-841-2145"},
{"id":230,"name":"Winifred Stedman","service":"Product Engineer","location":"PO Box 61201","rating":2,"profileImage":"http://dummyimage.com/117x100.png/ff4444/ffffff","phone":"508-580-9210"},
{"id":231,"name":"Muhammad Fabb","service":"Project Manager","location":"PO Box 46402","rating":2,"profileImage":"http://dummyimage.com/225x100.png/dddddd/000000","phone":"555-980-1546"},
{"id":232,"name":"Berri Heintsch","service":"Senior Cost Accountant","location":"Room 1529","rating":3,"profileImage":"http://dummyimage.com/174x100.png/ff4444/ffffff","phone":"149-708-0819"},
{"id":233,"name":"Ellene Gildersleaves","service":"Accounting Assistant I","location":"Suite 49","rating":2,"profileImage":"http://dummyimage.com/245x100.png/dddddd/000000","phone":"751-183-9658"},
{"id":234,"name":"Hilarius MacLeese","service":"Senior Cost Accountant","location":"13th Floor","rating":3,"profileImage":"http://dummyimage.com/117x100.png/ff4444/ffffff","phone":"577-275-0202"},
{"id":235,"name":"Bell Litster","service":"Geologist III","location":"4th Floor","rating":3,"profileImage":"http://dummyimage.com/150x100.png/dddddd/000000","phone":"113-563-6432"},
{"id":236,"name":"Dael Crampsy","service":"Environmental Tech","location":"Room 356","rating":4,"profileImage":"http://dummyimage.com/206x100.png/dddddd/000000","phone":"927-732-2235"},
{"id":237,"name":"Rickie Ganiclef","service":"Help Desk Technician","location":"PO Box 76406","rating":4,"profileImage":"http://dummyimage.com/172x100.png/5fa2dd/ffffff","phone":"897-977-3557"},
{"id":238,"name":"Lara Hutchcraft","service":"Nurse Practicioner","location":"PO Box 35210","rating":2,"profileImage":"http://dummyimage.com/149x100.png/dddddd/000000","phone":"105-528-6539"},
{"id":239,"name":"Davie Solleme","service":"Payment Adjustment Coordinator","location":"Apt 715","rating":2,"profileImage":"http://dummyimage.com/178x100.png/ff4444/ffffff","phone":"610-604-3674"},
{"id":240,"name":"Dorothea Mariner","service":"Civil Engineer","location":"Room 1346","rating":4,"profileImage":"http://dummyimage.com/233x100.png/dddddd/000000","phone":"491-722-1299"},
{"id":241,"name":"Wallis Hunday","service":"Environmental Specialist","location":"20th Floor","rating":1,"profileImage":"http://dummyimage.com/141x100.png/dddddd/000000","phone":"785-783-7871"},
{"id":242,"name":"Horatius Kenvin","service":"VP Accounting","location":"Room 1286","rating":2,"profileImage":"http://dummyimage.com/141x100.png/5fa2dd/ffffff","phone":"162-106-8353"},
{"id":243,"name":"Sissie Stailey","service":"Statistician IV","location":"PO Box 64205","rating":4,"profileImage":"http://dummyimage.com/227x100.png/ff4444/ffffff","phone":"983-657-0556"},
{"id":244,"name":"Arluene Peffer","service":"Desktop Support Technician","location":"17th Floor","rating":1,"profileImage":"http://dummyimage.com/203x100.png/ff4444/ffffff","phone":"574-182-3841"},
{"id":245,"name":"Edgardo Life","service":"Account Executive","location":"3rd Floor","rating":4,"profileImage":"http://dummyimage.com/115x100.png/5fa2dd/ffffff","phone":"341-753-0739"},
{"id":246,"name":"Sybille Soan","service":"Nurse Practicioner","location":"Apt 1318","rating":4,"profileImage":"http://dummyimage.com/166x100.png/cc0000/ffffff","phone":"220-684-2462"},
{"id":247,"name":"Novelia Arniz","service":"Software Consultant","location":"Suite 62","rating":4,"profileImage":"http://dummyimage.com/236x100.png/5fa2dd/ffffff","phone":"126-604-8010"},
{"id":248,"name":"Levi Backen","service":"Sales Representative","location":"Apt 1856","rating":4,"profileImage":"http://dummyimage.com/123x100.png/cc0000/ffffff","phone":"382-413-0251"},
{"id":249,"name":"Darcy Bevans","service":"Civil Engineer","location":"Room 1601","rating":4,"profileImage":"http://dummyimage.com/216x100.png/5fa2dd/ffffff","phone":"916-418-1525"},
{"id":250,"name":"Jehanna Lenox","service":"Sales Associate","location":"17th Floor","rating":2,"profileImage":"http://dummyimage.com/206x100.png/5fa2dd/ffffff","phone":"512-261-0567"},
{"id":251,"name":"Mel Shirland","service":"Accounting Assistant IV","location":"Suite 51","rating":5,"profileImage":"http://dummyimage.com/234x100.png/5fa2dd/ffffff","phone":"221-851-0765"},
{"id":252,"name":"Mace Yakebowitch","service":"Senior Developer","location":"Room 421","rating":1,"profileImage":"http://dummyimage.com/138x100.png/5fa2dd/ffffff","phone":"567-472-0905"},
{"id":253,"name":"Paulette Jendrusch","service":"Administrative Officer","location":"PO Box 50509","rating":2,"profileImage":"http://dummyimage.com/243x100.png/cc0000/ffffff","phone":"738-942-6957"},
{"id":254,"name":"Roanna Darrigoe","service":"Research Nurse","location":"Apt 1065","rating":3,"profileImage":"http://dummyimage.com/213x100.png/ff4444/ffffff","phone":"236-954-9029"},
{"id":255,"name":"Batsheva Leynagh","service":"Structural Analysis Engineer","location":"Suite 45","rating":4,"profileImage":"http://dummyimage.com/135x100.png/cc0000/ffffff","phone":"809-516-5237"},
{"id":256,"name":"Nelia Stolworthy","service":"VP Accounting","location":"4th Floor","rating":4,"profileImage":"http://dummyimage.com/200x100.png/dddddd/000000","phone":"289-110-9865"},
{"id":257,"name":"Georgetta Hacaud","service":"Occupational Therapist","location":"17th Floor","rating":1,"profileImage":"http://dummyimage.com/124x100.png/ff4444/ffffff","phone":"778-823-8913"},
{"id":258,"name":"Kiersten Setterington","service":"Editor","location":"20th Floor","rating":3,"profileImage":"http://dummyimage.com/217x100.png/cc0000/ffffff","phone":"345-880-5514"},
{"id":259,"name":"Brennan Keane","service":"Physical Therapy Assistant","location":"14th Floor","rating":4,"profileImage":"http://dummyimage.com/109x100.png/cc0000/ffffff","phone":"956-210-1565"},
{"id":260,"name":"Son Spalding","service":"Compensation Analyst","location":"Suite 16","rating":1,"profileImage":"http://dummyimage.com/188x100.png/dddddd/000000","phone":"321-332-5279"},
{"id":261,"name":"Eric Resun","service":"Quality Control Specialist","location":"8th Floor","rating":5,"profileImage":"http://dummyimage.com/204x100.png/5fa2dd/ffffff","phone":"512-194-1473"},
{"id":262,"name":"Berri Chumley","service":"Account Executive","location":"Apt 743","rating":2,"profileImage":"http://dummyimage.com/147x100.png/5fa2dd/ffffff","phone":"646-742-9244"},
{"id":263,"name":"Arleta Doick","service":"Physical Therapy Assistant","location":"PO Box 16740","rating":3,"profileImage":"http://dummyimage.com/128x100.png/cc0000/ffffff","phone":"693-184-1860"},
{"id":264,"name":"Waylin Jozaitis","service":"Assistant Media Planner","location":"5th Floor","rating":4,"profileImage":"http://dummyimage.com/210x100.png/ff4444/ffffff","phone":"186-487-4990"},
{"id":265,"name":"Carl Conerding","service":"Sales Associate","location":"Apt 1876","rating":3,"profileImage":"http://dummyimage.com/194x100.png/5fa2dd/ffffff","phone":"277-528-8992"},
{"id":266,"name":"Shaina Mew","service":"Software Consultant","location":"Room 378","rating":1,"profileImage":"http://dummyimage.com/171x100.png/ff4444/ffffff","phone":"732-875-3759"},
{"id":267,"name":"Nobie Trulock","service":"Speech Pathologist","location":"17th Floor","rating":2,"profileImage":"http://dummyimage.com/133x100.png/cc0000/ffffff","phone":"727-774-7901"},
{"id":268,"name":"Doro Josey","service":"Occupational Therapist","location":"Apt 1740","rating":4,"profileImage":"http://dummyimage.com/170x100.png/5fa2dd/ffffff","phone":"983-361-2902"},
{"id":269,"name":"Carleton Van der Baaren","service":"Nurse Practicioner","location":"Suite 48","rating":5,"profileImage":"http://dummyimage.com/207x100.png/dddddd/000000","phone":"502-462-1103"},
{"id":270,"name":"Tobe Oppy","service":"Financial Analyst","location":"Apt 1163","rating":5,"profileImage":"http://dummyimage.com/180x100.png/dddddd/000000","phone":"804-866-6825"},
{"id":271,"name":"Carissa Buggy","service":"Structural Engineer","location":"20th Floor","rating":2,"profileImage":"http://dummyimage.com/239x100.png/dddddd/000000","phone":"530-122-8954"},
{"id":272,"name":"Saunderson Mochan","service":"Marketing Manager","location":"Suite 91","rating":5,"profileImage":"http://dummyimage.com/205x100.png/cc0000/ffffff","phone":"585-964-8742"},
{"id":273,"name":"Giralda Abbitt","service":"Chief Design Engineer","location":"7th Floor","rating":1,"profileImage":"http://dummyimage.com/180x100.png/dddddd/000000","phone":"239-135-9401"},
{"id":274,"name":"Tonie Records","service":"Help Desk Operator","location":"Suite 41","rating":3,"profileImage":"http://dummyimage.com/177x100.png/5fa2dd/ffffff","phone":"806-211-4053"},
{"id":275,"name":"Kale Gaiger","service":"Senior Developer","location":"Room 634","rating":2,"profileImage":"http://dummyimage.com/240x100.png/cc0000/ffffff","phone":"309-540-6443"},
{"id":276,"name":"Prue Warrington","service":"Community Outreach Specialist","location":"Suite 37","rating":5,"profileImage":"http://dummyimage.com/144x100.png/5fa2dd/ffffff","phone":"911-295-1976"},
{"id":277,"name":"Gamaliel Kirley","service":"Internal Auditor","location":"PO Box 99891","rating":4,"profileImage":"http://dummyimage.com/157x100.png/5fa2dd/ffffff","phone":"635-625-5155"},
{"id":278,"name":"Bailie Geldeford","service":"Legal Assistant","location":"PO Box 15885","rating":4,"profileImage":"http://dummyimage.com/103x100.png/ff4444/ffffff","phone":"958-772-8593"},
{"id":279,"name":"Jeff Lilywhite","service":"Editor","location":"Apt 744","rating":2,"profileImage":"http://dummyimage.com/127x100.png/dddddd/000000","phone":"186-196-1022"},
{"id":280,"name":"Nicolis Chamberlain","service":"Software Engineer II","location":"12th Floor","rating":1,"profileImage":"http://dummyimage.com/198x100.png/ff4444/ffffff","phone":"575-773-3937"},
{"id":281,"name":"Crista Weetch","service":"Health Coach III","location":"PO Box 53029","rating":4,"profileImage":"http://dummyimage.com/107x100.png/cc0000/ffffff","phone":"266-776-5599"},
{"id":282,"name":"Chrotoem Browse","service":"Analog Circuit Design manager","location":"10th Floor","rating":3,"profileImage":"http://dummyimage.com/191x100.png/ff4444/ffffff","phone":"924-694-2014"},
{"id":283,"name":"Ethelda Dell Casa","service":"Mechanical Systems Engineer","location":"Room 387","rating":4,"profileImage":"http://dummyimage.com/235x100.png/dddddd/000000","phone":"600-103-2155"},
{"id":284,"name":"Olga Bakes","service":"Project Manager","location":"PO Box 49928","rating":5,"profileImage":"http://dummyimage.com/233x100.png/cc0000/ffffff","phone":"904-343-7353"},
{"id":285,"name":"Lemmie Olenchenko","service":"Senior Editor","location":"Apt 1665","rating":2,"profileImage":"http://dummyimage.com/199x100.png/5fa2dd/ffffff","phone":"734-838-4986"},
{"id":286,"name":"Titus Mayou","service":"Editor","location":"14th Floor","rating":4,"profileImage":"http://dummyimage.com/135x100.png/cc0000/ffffff","phone":"677-285-8720"},
{"id":287,"name":"Alanah Ribey","service":"Environmental Specialist","location":"PO Box 68971","rating":4,"profileImage":"http://dummyimage.com/180x100.png/5fa2dd/ffffff","phone":"402-122-9910"},
{"id":288,"name":"Sumner Pache","service":"Structural Engineer","location":"PO Box 19429","rating":3,"profileImage":"http://dummyimage.com/188x100.png/ff4444/ffffff","phone":"156-750-1300"},
{"id":289,"name":"Ardisj Hiland","service":"Editor","location":"Suite 13","rating":3,"profileImage":"http://dummyimage.com/204x100.png/5fa2dd/ffffff","phone":"690-526-6934"},
{"id":290,"name":"Gaven Iglesias","service":"Programmer Analyst II","location":"Apt 1693","rating":1,"profileImage":"http://dummyimage.com/213x100.png/ff4444/ffffff","phone":"865-799-7666"},
{"id":291,"name":"Gonzales Melland","service":"Systems Administrator III","location":"Room 1146","rating":5,"profileImage":"http://dummyimage.com/110x100.png/ff4444/ffffff","phone":"903-417-2732"},
{"id":292,"name":"Rosabel Ayris","service":"Social Worker","location":"Apt 1125","rating":2,"profileImage":"http://dummyimage.com/168x100.png/cc0000/ffffff","phone":"218-407-4459"},
{"id":293,"name":"Lira Hulland","service":"Web Developer II","location":"PO Box 76498","rating":4,"profileImage":"http://dummyimage.com/108x100.png/dddddd/000000","phone":"445-446-1184"},
{"id":294,"name":"Moll Danielkiewicz","service":"Software Test Engineer IV","location":"Apt 1701","rating":5,"profileImage":"http://dummyimage.com/192x100.png/ff4444/ffffff","phone":"160-417-2686"},
{"id":295,"name":"Orrin Charlon","service":"Assistant Media Planner","location":"Suite 11","rating":4,"profileImage":"http://dummyimage.com/217x100.png/5fa2dd/ffffff","phone":"808-716-8246"},
{"id":296,"name":"Janet Shasnan","service":"Software Engineer IV","location":"Suite 5","rating":2,"profileImage":"http://dummyimage.com/147x100.png/ff4444/ffffff","phone":"226-858-1422"},
{"id":297,"name":"Bram Brockest","service":"Analog Circuit Design manager","location":"10th Floor","rating":2,"profileImage":"http://dummyimage.com/237x100.png/dddddd/000000","phone":"294-128-8000"},
{"id":298,"name":"Randolf Lisimore","service":"VP Quality Control","location":"Room 1","rating":2,"profileImage":"http://dummyimage.com/196x100.png/dddddd/000000","phone":"379-808-6365"},
{"id":299,"name":"Chrystel Counihan","service":"Web Designer I","location":"PO Box 1907","rating":5,"profileImage":"http://dummyimage.com/139x100.png/dddddd/000000","phone":"386-288-6764"},
{"id":300,"name":"Ned Flori","service":"Senior Financial Analyst","location":"20th Floor","rating":2,"profileImage":"http://dummyimage.com/112x100.png/5fa2dd/ffffff","phone":"917-635-6992"},
{"id":301,"name":"Kate Goldie","service":"Assistant Professor","location":"Suite 77","rating":5,"profileImage":"http://dummyimage.com/218x100.png/cc0000/ffffff","phone":"933-467-8024"},
{"id":302,"name":"Niles Ortsmann","service":"Internal Auditor","location":"Room 742","rating":2,"profileImage":"http://dummyimage.com/127x100.png/ff4444/ffffff","phone":"244-107-1902"},
{"id":303,"name":"Liva Fearney","service":"Librarian","location":"Suite 86","rating":1,"profileImage":"http://dummyimage.com/163x100.png/5fa2dd/ffffff","phone":"275-888-0017"},
{"id":304,"name":"Margarethe Blamphin","service":"Technical Writer","location":"Suite 80","rating":5,"profileImage":"http://dummyimage.com/152x100.png/dddddd/000000","phone":"521-804-2609"},
{"id":305,"name":"Sonja Stammers","service":"Pharmacist","location":"13th Floor","rating":2,"profileImage":"http://dummyimage.com/194x100.png/dddddd/000000","phone":"639-367-9715"},
{"id":306,"name":"Duffie Leist","service":"Legal Assistant","location":"Apt 548","rating":3,"profileImage":"http://dummyimage.com/124x100.png/dddddd/000000","phone":"467-100-2101"},
{"id":307,"name":"Donny Phillp","service":"Staff Accountant I","location":"PO Box 70000","rating":1,"profileImage":"http://dummyimage.com/135x100.png/5fa2dd/ffffff","phone":"707-805-6579"},
{"id":308,"name":"Caldwell Gertz","service":"Editor","location":"Suite 81","rating":5,"profileImage":"http://dummyimage.com/202x100.png/5fa2dd/ffffff","phone":"858-928-8833"},
{"id":309,"name":"Gretal Warrack","service":"Programmer II","location":"Suite 86","rating":2,"profileImage":"http://dummyimage.com/197x100.png/5fa2dd/ffffff","phone":"865-620-3144"},
{"id":310,"name":"Simmonds Shanks","service":"Electrical Engineer","location":"Suite 28","rating":2,"profileImage":"http://dummyimage.com/220x100.png/5fa2dd/ffffff","phone":"801-136-8294"},
{"id":311,"name":"Philippe Stickford","service":"Help Desk Operator","location":"11th Floor","rating":3,"profileImage":"http://dummyimage.com/102x100.png/5fa2dd/ffffff","phone":"907-966-7207"},
{"id":312,"name":"Dolli Eburne","service":"Data Coordinator","location":"12th Floor","rating":4,"profileImage":"http://dummyimage.com/245x100.png/ff4444/ffffff","phone":"230-114-9302"},
{"id":313,"name":"Shandeigh Klinck","service":"GIS Technical Architect","location":"Suite 80","rating":1,"profileImage":"http://dummyimage.com/242x100.png/dddddd/000000","phone":"966-234-9292"},
{"id":314,"name":"Rivalee Skillanders","service":"Engineer II","location":"Suite 94","rating":5,"profileImage":"http://dummyimage.com/205x100.png/5fa2dd/ffffff","phone":"604-673-5887"},
{"id":315,"name":"Lyssa Conichie","service":"Sales Associate","location":"PO Box 56174","rating":1,"profileImage":"http://dummyimage.com/122x100.png/ff4444/ffffff","phone":"867-710-3546"},
{"id":316,"name":"Godwin Stanistreet","service":"Teacher","location":"PO Box 42644","rating":2,"profileImage":"http://dummyimage.com/169x100.png/dddddd/000000","phone":"753-394-6410"},
{"id":317,"name":"Brnaby Carress","service":"Geologist I","location":"Suite 39","rating":2,"profileImage":"http://dummyimage.com/159x100.png/dddddd/000000","phone":"749-510-6432"},
{"id":318,"name":"Carny Hegge","service":"Editor","location":"Room 1324","rating":4,"profileImage":"http://dummyimage.com/210x100.png/ff4444/ffffff","phone":"948-935-4606"},
{"id":319,"name":"Flore Piddletown","service":"Software Consultant","location":"15th Floor","rating":2,"profileImage":"http://dummyimage.com/174x100.png/dddddd/000000","phone":"584-389-2427"},
{"id":320,"name":"Clovis Drewet","service":"Recruiter","location":"Room 587","rating":1,"profileImage":"http://dummyimage.com/179x100.png/cc0000/ffffff","phone":"210-891-9138"},
{"id":321,"name":"Betti Di Lucia","service":"Statistician IV","location":"Suite 71","rating":1,"profileImage":"http://dummyimage.com/206x100.png/5fa2dd/ffffff","phone":"813-652-7534"},
{"id":322,"name":"Lara Caldecot","service":"Account Executive","location":"Apt 651","rating":3,"profileImage":"http://dummyimage.com/195x100.png/cc0000/ffffff","phone":"815-696-7984"},
{"id":323,"name":"Dorian Trematick","service":"Chief Design Engineer","location":"Apt 1807","rating":3,"profileImage":"http://dummyimage.com/181x100.png/cc0000/ffffff","phone":"701-618-6185"},
{"id":324,"name":"Lexie Phant","service":"Help Desk Technician","location":"16th Floor","rating":5,"profileImage":"http://dummyimage.com/177x100.png/dddddd/000000","phone":"615-719-3161"},
{"id":325,"name":"Luke Fernie","service":"Nuclear Power Engineer","location":"PO Box 67686","rating":2,"profileImage":"http://dummyimage.com/156x100.png/ff4444/ffffff","phone":"443-304-8698"},
{"id":326,"name":"Evered Ruos","service":"Accountant II","location":"Apt 70","rating":2,"profileImage":"http://dummyimage.com/122x100.png/dddddd/000000","phone":"297-914-1249"},
{"id":327,"name":"Eleanor Lillicrop","service":"Software Test Engineer III","location":"Room 1769","rating":2,"profileImage":"http://dummyimage.com/201x100.png/dddddd/000000","phone":"722-238-3851"},
{"id":328,"name":"Kary Mc Queen","service":"Accountant III","location":"PO Box 31415","rating":3,"profileImage":"http://dummyimage.com/169x100.png/ff4444/ffffff","phone":"944-740-9266"},
{"id":329,"name":"Spencer Prout","service":"Civil Engineer","location":"18th Floor","rating":5,"profileImage":"http://dummyimage.com/171x100.png/dddddd/000000","phone":"266-762-8505"},
{"id":330,"name":"Troy Sandall","service":"Executive Secretary","location":"Apt 130","rating":4,"profileImage":"http://dummyimage.com/161x100.png/ff4444/ffffff","phone":"771-396-6937"},
{"id":331,"name":"Desi Rubinsztein","service":"Accountant III","location":"Room 1304","rating":2,"profileImage":"http://dummyimage.com/111x100.png/dddddd/000000","phone":"942-146-3291"},
{"id":332,"name":"Kendall Heaslip","service":"Senior Quality Engineer","location":"PO Box 1708","rating":2,"profileImage":"http://dummyimage.com/190x100.png/ff4444/ffffff","phone":"867-899-8757"},
{"id":333,"name":"Myer Ionnidis","service":"Safety Technician I","location":"PO Box 62057","rating":2,"profileImage":"http://dummyimage.com/244x100.png/dddddd/000000","phone":"835-686-3276"},
{"id":334,"name":"Tam Bloss","service":"Payment Adjustment Coordinator","location":"PO Box 57022","rating":2,"profileImage":"http://dummyimage.com/241x100.png/dddddd/000000","phone":"709-440-0666"},
{"id":335,"name":"Bella Simoncini","service":"Environmental Tech","location":"3rd Floor","rating":4,"profileImage":"http://dummyimage.com/142x100.png/ff4444/ffffff","phone":"209-967-7363"},
{"id":336,"name":"Clem Hess","service":"Teacher","location":"Apt 301","rating":2,"profileImage":"http://dummyimage.com/121x100.png/dddddd/000000","phone":"849-676-6793"},
{"id":337,"name":"Selene McLenahan","service":"Actuary","location":"Room 1314","rating":3,"profileImage":"http://dummyimage.com/190x100.png/ff4444/ffffff","phone":"988-125-4573"},
{"id":338,"name":"Paco Vigneron","service":"Administrative Officer","location":"Room 1632","rating":4,"profileImage":"http://dummyimage.com/154x100.png/cc0000/ffffff","phone":"824-939-2862"},
{"id":339,"name":"Dalis McBoyle","service":"Occupational Therapist","location":"Room 761","rating":2,"profileImage":"http://dummyimage.com/232x100.png/cc0000/ffffff","phone":"819-887-6532"},
{"id":340,"name":"Kerry McGreil","service":"VP Sales","location":"PO Box 52548","rating":2,"profileImage":"http://dummyimage.com/117x100.png/ff4444/ffffff","phone":"453-441-4237"},
{"id":341,"name":"Kale Grelik","service":"Analog Circuit Design manager","location":"Suite 67","rating":4,"profileImage":"http://dummyimage.com/199x100.png/cc0000/ffffff","phone":"746-140-3249"},
{"id":342,"name":"Uri Perkin","service":"Web Designer IV","location":"PO Box 45335","rating":3,"profileImage":"http://dummyimage.com/124x100.png/cc0000/ffffff","phone":"362-260-4596"},
{"id":343,"name":"Jody Clyde","service":"Research Nurse","location":"Suite 16","rating":1,"profileImage":"http://dummyimage.com/223x100.png/dddddd/000000","phone":"337-402-8411"},
{"id":344,"name":"Hatty Eaglesham","service":"GIS Technical Architect","location":"4th Floor","rating":1,"profileImage":"http://dummyimage.com/215x100.png/cc0000/ffffff","phone":"901-684-4709"},
{"id":345,"name":"Spense Aherne","service":"VP Product Management","location":"3rd Floor","rating":4,"profileImage":"http://dummyimage.com/224x100.png/5fa2dd/ffffff","phone":"719-779-3669"},
{"id":346,"name":"Tremain MacColgan","service":"Quality Engineer","location":"Apt 898","rating":5,"profileImage":"http://dummyimage.com/205x100.png/5fa2dd/ffffff","phone":"799-275-2478"},
{"id":347,"name":"Costa Ashwell","service":"Chief Design Engineer","location":"Apt 459","rating":4,"profileImage":"http://dummyimage.com/174x100.png/5fa2dd/ffffff","phone":"540-159-0628"},
{"id":348,"name":"Zelda Vassel","service":"Marketing Assistant","location":"10th Floor","rating":3,"profileImage":"http://dummyimage.com/165x100.png/dddddd/000000","phone":"368-686-0442"},
{"id":349,"name":"Cale Fernandez","service":"VP Accounting","location":"PO Box 60574","rating":5,"profileImage":"http://dummyimage.com/174x100.png/ff4444/ffffff","phone":"409-372-3561"},
{"id":350,"name":"Annabela Roelvink","service":"Structural Engineer","location":"Apt 593","rating":5,"profileImage":"http://dummyimage.com/204x100.png/cc0000/ffffff","phone":"765-867-8450"},
{"id":351,"name":"Elvina Littlewood","service":"Senior Quality Engineer","location":"8th Floor","rating":5,"profileImage":"http://dummyimage.com/237x100.png/dddddd/000000","phone":"460-639-6267"},
{"id":352,"name":"Marilee Jacobowits","service":"Professor","location":"Suite 63","rating":4,"profileImage":"http://dummyimage.com/199x100.png/5fa2dd/ffffff","phone":"421-158-4635"},
{"id":353,"name":"Blakelee Henriet","service":"Account Coordinator","location":"Apt 893","rating":1,"profileImage":"http://dummyimage.com/121x100.png/5fa2dd/ffffff","phone":"482-814-0817"},
{"id":354,"name":"Nalani Thebes","service":"Biostatistician II","location":"Apt 501","rating":4,"profileImage":"http://dummyimage.com/161x100.png/ff4444/ffffff","phone":"692-231-8991"},
{"id":355,"name":"Tedmund Adamek","service":"Administrative Assistant IV","location":"PO Box 66692","rating":3,"profileImage":"http://dummyimage.com/154x100.png/5fa2dd/ffffff","phone":"230-272-9281"},
{"id":356,"name":"Brucie McCourt","service":"Executive Secretary","location":"PO Box 63222","rating":1,"profileImage":"http://dummyimage.com/217x100.png/ff4444/ffffff","phone":"463-291-1179"},
{"id":357,"name":"Linnell Kaines","service":"Research Associate","location":"PO Box 47854","rating":3,"profileImage":"http://dummyimage.com/113x100.png/5fa2dd/ffffff","phone":"138-129-5864"},
{"id":358,"name":"Maura Giraudy","service":"Nuclear Power Engineer","location":"PO Box 47458","rating":5,"profileImage":"http://dummyimage.com/117x100.png/dddddd/000000","phone":"706-200-6222"},
{"id":359,"name":"Odessa Althrope","service":"GIS Technical Architect","location":"PO Box 21075","rating":2,"profileImage":"http://dummyimage.com/197x100.png/ff4444/ffffff","phone":"132-564-8716"},
{"id":360,"name":"Thibaud Hugo","service":"Analyst Programmer","location":"Apt 872","rating":2,"profileImage":"http://dummyimage.com/202x100.png/ff4444/ffffff","phone":"857-920-9485"},
{"id":361,"name":"Anette Delafont","service":"Teacher","location":"2nd Floor","rating":5,"profileImage":"http://dummyimage.com/156x100.png/cc0000/ffffff","phone":"176-479-1292"},
{"id":362,"name":"Elwyn Iley","service":"Accounting Assistant IV","location":"5th Floor","rating":2,"profileImage":"http://dummyimage.com/104x100.png/dddddd/000000","phone":"998-701-4963"},
{"id":363,"name":"Howard Burlingame","service":"Assistant Manager","location":"20th Floor","rating":3,"profileImage":"http://dummyimage.com/162x100.png/cc0000/ffffff","phone":"887-129-1059"},
{"id":364,"name":"Alejandrina Espinet","service":"Data Coordinator","location":"8th Floor","rating":5,"profileImage":"http://dummyimage.com/233x100.png/cc0000/ffffff","phone":"419-264-6788"},
{"id":365,"name":"Gerty Taylor","service":"Tax Accountant","location":"Suite 89","rating":4,"profileImage":"http://dummyimage.com/172x100.png/ff4444/ffffff","phone":"320-494-0348"},
{"id":366,"name":"Helen-elizabeth Bertomeu","service":"Research Nurse","location":"Apt 336","rating":3,"profileImage":"http://dummyimage.com/127x100.png/cc0000/ffffff","phone":"959-688-6357"},
{"id":367,"name":"Alfred Huskinson","service":"Recruiting Manager","location":"PO Box 64128","rating":3,"profileImage":"http://dummyimage.com/174x100.png/dddddd/000000","phone":"394-691-9045"},
{"id":368,"name":"Lucio Haggidon","service":"Research Nurse","location":"Suite 8","rating":1,"profileImage":"http://dummyimage.com/107x100.png/cc0000/ffffff","phone":"696-566-3542"},
{"id":369,"name":"Dorry Sheron","service":"Professor","location":"20th Floor","rating":4,"profileImage":"http://dummyimage.com/108x100.png/cc0000/ffffff","phone":"705-971-7810"},
{"id":370,"name":"Darbie Tebbett","service":"Civil Engineer","location":"Suite 59","rating":1,"profileImage":"http://dummyimage.com/129x100.png/5fa2dd/ffffff","phone":"967-772-9228"},
{"id":371,"name":"Ricoriki Swayland","service":"Junior Executive","location":"Suite 90","rating":2,"profileImage":"http://dummyimage.com/110x100.png/5fa2dd/ffffff","phone":"388-362-6298"},
{"id":372,"name":"Netty Beckhurst","service":"Administrative Officer","location":"Apt 723","rating":3,"profileImage":"http://dummyimage.com/174x100.png/cc0000/ffffff","phone":"813-835-5607"},
{"id":373,"name":"Alon Mulligan","service":"Research Assistant I","location":"Suite 86","rating":1,"profileImage":"http://dummyimage.com/236x100.png/cc0000/ffffff","phone":"315-867-4172"},
{"id":374,"name":"Ruthe Yardley","service":"Quality Control Specialist","location":"9th Floor","rating":4,"profileImage":"http://dummyimage.com/205x100.png/cc0000/ffffff","phone":"540-355-5622"},
{"id":375,"name":"Delaney Deek","service":"Programmer Analyst III","location":"13th Floor","rating":1,"profileImage":"http://dummyimage.com/226x100.png/ff4444/ffffff","phone":"868-547-2220"},
{"id":376,"name":"Ignace Abramchik","service":"Food Chemist","location":"15th Floor","rating":4,"profileImage":"http://dummyimage.com/163x100.png/ff4444/ffffff","phone":"502-262-7253"},
{"id":377,"name":"Mimi Wellings","service":"Junior Executive","location":"Apt 1499","rating":3,"profileImage":"http://dummyimage.com/202x100.png/ff4444/ffffff","phone":"909-812-8571"},
{"id":378,"name":"Osborne Yitzhok","service":"Food Chemist","location":"Apt 1251","rating":1,"profileImage":"http://dummyimage.com/242x100.png/dddddd/000000","phone":"251-442-2741"},
{"id":379,"name":"Frayda Woolen","service":"General Manager","location":"Suite 33","rating":1,"profileImage":"http://dummyimage.com/231x100.png/ff4444/ffffff","phone":"867-631-6461"},
{"id":380,"name":"Siouxie Van Leijs","service":"Assistant Professor","location":"Room 443","rating":5,"profileImage":"http://dummyimage.com/144x100.png/cc0000/ffffff","phone":"506-210-2630"},
{"id":381,"name":"Isabelita Kmietsch","service":"Nurse Practicioner","location":"PO Box 60233","rating":1,"profileImage":"http://dummyimage.com/181x100.png/ff4444/ffffff","phone":"947-963-4882"},
{"id":382,"name":"Lisha Kausche","service":"Senior Editor","location":"Room 45","rating":4,"profileImage":"http://dummyimage.com/145x100.png/cc0000/ffffff","phone":"403-406-4706"},
{"id":383,"name":"Katerina Colaton","service":"Programmer Analyst III","location":"PO Box 81521","rating":4,"profileImage":"http://dummyimage.com/182x100.png/dddddd/000000","phone":"846-827-7349"},
{"id":384,"name":"Celine Streeting","service":"Technical Writer","location":"Room 415","rating":4,"profileImage":"http://dummyimage.com/172x100.png/cc0000/ffffff","phone":"867-375-2502"},
{"id":385,"name":"Devondra Van Salzberger","service":"Help Desk Operator","location":"PO Box 35822","rating":3,"profileImage":"http://dummyimage.com/100x100.png/ff4444/ffffff","phone":"499-640-3569"},
{"id":386,"name":"Dody Becks","service":"Director of Sales","location":"Room 1663","rating":1,"profileImage":"http://dummyimage.com/215x100.png/ff4444/ffffff","phone":"410-380-5908"},
{"id":387,"name":"Rufe Daniau","service":"Developer III","location":"Apt 157","rating":5,"profileImage":"http://dummyimage.com/158x100.png/cc0000/ffffff","phone":"811-600-5866"},
{"id":388,"name":"Henderson Yare","service":"Internal Auditor","location":"Room 1906","rating":5,"profileImage":"http://dummyimage.com/102x100.png/ff4444/ffffff","phone":"461-965-7047"},
{"id":389,"name":"Felicio Radage","service":"Editor","location":"PO Box 98823","rating":2,"profileImage":"http://dummyimage.com/226x100.png/dddddd/000000","phone":"904-242-8787"},
{"id":390,"name":"Terri Cocke","service":"Analog Circuit Design manager","location":"Room 181","rating":5,"profileImage":"http://dummyimage.com/181x100.png/cc0000/ffffff","phone":"406-133-1780"},
{"id":391,"name":"Angus Winterflood","service":"Sales Associate","location":"Suite 98","rating":3,"profileImage":"http://dummyimage.com/233x100.png/5fa2dd/ffffff","phone":"195-470-4767"},
{"id":392,"name":"Crawford Guerrazzi","service":"Assistant Professor","location":"Suite 63","rating":1,"profileImage":"http://dummyimage.com/168x100.png/dddddd/000000","phone":"664-155-5258"},
{"id":393,"name":"Cori Leeke","service":"Design Engineer","location":"PO Box 37067","rating":2,"profileImage":"http://dummyimage.com/126x100.png/cc0000/ffffff","phone":"691-139-7415"},
{"id":394,"name":"Shoshanna Lambertz","service":"Web Designer IV","location":"Suite 6","rating":5,"profileImage":"http://dummyimage.com/116x100.png/cc0000/ffffff","phone":"985-379-2151"},
{"id":395,"name":"Ava Hamman","service":"Environmental Tech","location":"Suite 90","rating":1,"profileImage":"http://dummyimage.com/233x100.png/ff4444/ffffff","phone":"253-841-6642"},
{"id":396,"name":"Gloriane De Bruijn","service":"VP Accounting","location":"20th Floor","rating":2,"profileImage":"http://dummyimage.com/208x100.png/5fa2dd/ffffff","phone":"415-243-2472"},
{"id":397,"name":"Barry Lamas","service":"Associate Professor","location":"PO Box 78962","rating":1,"profileImage":"http://dummyimage.com/179x100.png/5fa2dd/ffffff","phone":"620-836-1952"},
{"id":398,"name":"Ursulina Seers","service":"Assistant Manager","location":"Room 511","rating":3,"profileImage":"http://dummyimage.com/119x100.png/dddddd/000000","phone":"678-748-3966"},
{"id":399,"name":"Jannel Tremberth","service":"Data Coordinator","location":"Suite 93","rating":4,"profileImage":"http://dummyimage.com/129x100.png/dddddd/000000","phone":"340-683-6180"},
{"id":400,"name":"Jim Olivella","service":"Occupational Therapist","location":"Room 851","rating":4,"profileImage":"http://dummyimage.com/114x100.png/5fa2dd/ffffff","phone":"495-490-0212"},
{"id":401,"name":"Northrup Clemencon","service":"Community Outreach Specialist","location":"PO Box 55117","rating":1,"profileImage":"http://dummyimage.com/213x100.png/ff4444/ffffff","phone":"730-542-8558"},
{"id":402,"name":"Elisabet Larne","service":"Data Coordinator","location":"Apt 970","rating":2,"profileImage":"http://dummyimage.com/122x100.png/5fa2dd/ffffff","phone":"549-766-7373"},
{"id":403,"name":"Henrietta Glavias","service":"Recruiting Manager","location":"Suite 16","rating":5,"profileImage":"http://dummyimage.com/127x100.png/cc0000/ffffff","phone":"434-955-9349"},
{"id":404,"name":"Mario Ashpole","service":"Human Resources Assistant II","location":"PO Box 91543","rating":1,"profileImage":"http://dummyimage.com/187x100.png/5fa2dd/ffffff","phone":"639-291-3337"},
{"id":405,"name":"Clayborne Bosket","service":"Recruiting Manager","location":"Apt 95","rating":1,"profileImage":"http://dummyimage.com/129x100.png/5fa2dd/ffffff","phone":"185-726-5844"},
{"id":406,"name":"Giraud Chennells","service":"Graphic Designer","location":"Apt 1334","rating":1,"profileImage":"http://dummyimage.com/186x100.png/5fa2dd/ffffff","phone":"645-681-8969"},
{"id":407,"name":"Harli Lode","service":"Graphic Designer","location":"Suite 27","rating":2,"profileImage":"http://dummyimage.com/240x100.png/5fa2dd/ffffff","phone":"201-681-3962"},
{"id":408,"name":"Anabella Battrum","service":"Software Consultant","location":"Apt 1648","rating":1,"profileImage":"http://dummyimage.com/121x100.png/5fa2dd/ffffff","phone":"697-551-7469"},
{"id":409,"name":"Annemarie Fernehough","service":"Software Engineer I","location":"Apt 1212","rating":3,"profileImage":"http://dummyimage.com/192x100.png/dddddd/000000","phone":"375-259-4730"},
{"id":410,"name":"Mirelle McCartney","service":"GIS Technical Architect","location":"Room 1564","rating":1,"profileImage":"http://dummyimage.com/234x100.png/cc0000/ffffff","phone":"974-677-9267"},
{"id":411,"name":"Cati Lodevick","service":"Engineer I","location":"Apt 955","rating":5,"profileImage":"http://dummyimage.com/148x100.png/dddddd/000000","phone":"828-239-1498"},
{"id":412,"name":"Javier Dicte","service":"General Manager","location":"Apt 1835","rating":2,"profileImage":"http://dummyimage.com/100x100.png/cc0000/ffffff","phone":"699-611-0755"},
{"id":413,"name":"Marley Moncaster","service":"Human Resources Assistant I","location":"PO Box 22779","rating":5,"profileImage":"http://dummyimage.com/183x100.png/cc0000/ffffff","phone":"824-689-9043"},
{"id":414,"name":"Charlotta Stewart","service":"Actuary","location":"Room 691","rating":2,"profileImage":"http://dummyimage.com/160x100.png/dddddd/000000","phone":"471-664-3701"},
{"id":415,"name":"Addie Camier","service":"Cost Accountant","location":"Room 1099","rating":1,"profileImage":"http://dummyimage.com/133x100.png/ff4444/ffffff","phone":"146-804-7408"},
{"id":416,"name":"Erroll Walthew","service":"GIS Technical Architect","location":"PO Box 59145","rating":5,"profileImage":"http://dummyimage.com/134x100.png/ff4444/ffffff","phone":"967-346-5391"},
{"id":417,"name":"Sherlock Drew-Clifton","service":"Senior Financial Analyst","location":"17th Floor","rating":5,"profileImage":"http://dummyimage.com/193x100.png/5fa2dd/ffffff","phone":"931-946-4931"},
{"id":418,"name":"Alysa Olwen","service":"Media Manager I","location":"PO Box 39765","rating":2,"profileImage":"http://dummyimage.com/248x100.png/5fa2dd/ffffff","phone":"517-113-0422"},
{"id":419,"name":"Juliann Arno","service":"Data Coordinator","location":"Room 1375","rating":2,"profileImage":"http://dummyimage.com/123x100.png/5fa2dd/ffffff","phone":"458-921-0068"},
{"id":420,"name":"Eolanda Yashunin","service":"Structural Engineer","location":"Room 725","rating":2,"profileImage":"http://dummyimage.com/114x100.png/ff4444/ffffff","phone":"934-441-0255"},
{"id":421,"name":"Dennie Middleditch","service":"Structural Engineer","location":"3rd Floor","rating":4,"profileImage":"http://dummyimage.com/128x100.png/cc0000/ffffff","phone":"982-219-0262"},
{"id":422,"name":"Bobbette Benham","service":"Data Coordinator","location":"8th Floor","rating":2,"profileImage":"http://dummyimage.com/192x100.png/dddddd/000000","phone":"314-495-4343"},
{"id":423,"name":"Jeannie Hounsome","service":"Geologist III","location":"Apt 1302","rating":1,"profileImage":"http://dummyimage.com/143x100.png/dddddd/000000","phone":"327-226-8345"},
{"id":424,"name":"De Disbury","service":"VP Product Management","location":"11th Floor","rating":1,"profileImage":"http://dummyimage.com/125x100.png/dddddd/000000","phone":"869-909-6410"},
{"id":425,"name":"Catie Fountian","service":"Computer Systems Analyst III","location":"Room 685","rating":1,"profileImage":"http://dummyimage.com/109x100.png/5fa2dd/ffffff","phone":"565-695-5741"},
{"id":426,"name":"Aile Aberkirdo","service":"VP Quality Control","location":"PO Box 87627","rating":1,"profileImage":"http://dummyimage.com/159x100.png/5fa2dd/ffffff","phone":"466-361-1112"},
{"id":427,"name":"Betteann Ebbett","service":"Technical Writer","location":"Apt 1011","rating":3,"profileImage":"http://dummyimage.com/250x100.png/cc0000/ffffff","phone":"821-559-4097"},
{"id":428,"name":"Vere Duddle","service":"Chief Design Engineer","location":"Room 1679","rating":3,"profileImage":"http://dummyimage.com/123x100.png/5fa2dd/ffffff","phone":"639-740-3245"},
{"id":429,"name":"Mickie Flattman","service":"Administrative Officer","location":"Suite 56","rating":5,"profileImage":"http://dummyimage.com/113x100.png/dddddd/000000","phone":"708-620-7913"},
{"id":430,"name":"Helenka Izkovitz","service":"Technical Writer","location":"PO Box 70412","rating":3,"profileImage":"http://dummyimage.com/183x100.png/cc0000/ffffff","phone":"425-869-7724"},
{"id":431,"name":"Rachael Bousquet","service":"Compensation Analyst","location":"PO Box 56014","rating":2,"profileImage":"http://dummyimage.com/185x100.png/ff4444/ffffff","phone":"516-615-0078"},
{"id":432,"name":"Alejandra Warre","service":"Automation Specialist II","location":"10th Floor","rating":1,"profileImage":"http://dummyimage.com/122x100.png/5fa2dd/ffffff","phone":"856-395-2872"},
{"id":433,"name":"Sharyl Kantor","service":"Editor","location":"Apt 1333","rating":1,"profileImage":"http://dummyimage.com/175x100.png/5fa2dd/ffffff","phone":"150-568-6972"},
{"id":434,"name":"Baryram Bartkowiak","service":"Sales Representative","location":"Room 983","rating":4,"profileImage":"http://dummyimage.com/177x100.png/dddddd/000000","phone":"526-259-3068"},
{"id":435,"name":"Gayel Fidele","service":"Staff Accountant II","location":"Room 106","rating":1,"profileImage":"http://dummyimage.com/179x100.png/dddddd/000000","phone":"218-824-0558"},
{"id":436,"name":"Oralia Sussems","service":"Chief Design Engineer","location":"PO Box 29945","rating":1,"profileImage":"http://dummyimage.com/159x100.png/cc0000/ffffff","phone":"751-104-5275"},
{"id":437,"name":"Mitzi Emby","service":"Associate Professor","location":"PO Box 67157","rating":2,"profileImage":"http://dummyimage.com/143x100.png/cc0000/ffffff","phone":"904-342-1120"},
{"id":438,"name":"Vernon Kagan","service":"Cost Accountant","location":"Apt 307","rating":3,"profileImage":"http://dummyimage.com/183x100.png/dddddd/000000","phone":"838-260-5224"},
{"id":439,"name":"Elsey Sotheron","service":"Mechanical Systems Engineer","location":"PO Box 92889","rating":5,"profileImage":"http://dummyimage.com/106x100.png/cc0000/ffffff","phone":"108-359-2655"},
{"id":440,"name":"Marcia Littlewood","service":"Payment Adjustment Coordinator","location":"Suite 65","rating":5,"profileImage":"http://dummyimage.com/101x100.png/dddddd/000000","phone":"200-211-7165"},
{"id":441,"name":"Joycelin Dible","service":"Automation Specialist III","location":"Apt 1315","rating":3,"profileImage":"http://dummyimage.com/150x100.png/5fa2dd/ffffff","phone":"896-256-3975"},
{"id":442,"name":"Nedda Fildes","service":"Nuclear Power Engineer","location":"Suite 36","rating":1,"profileImage":"http://dummyimage.com/125x100.png/dddddd/000000","phone":"984-737-3467"},
{"id":443,"name":"Livia Shackle","service":"Analog Circuit Design manager","location":"20th Floor","rating":2,"profileImage":"http://dummyimage.com/249x100.png/cc0000/ffffff","phone":"262-746-1564"},
{"id":444,"name":"Tabbie Milton","service":"Analog Circuit Design manager","location":"Apt 571","rating":2,"profileImage":"http://dummyimage.com/112x100.png/5fa2dd/ffffff","phone":"370-912-4347"},
{"id":445,"name":"Abraham Brigg","service":"VP Marketing","location":"Room 1645","rating":3,"profileImage":"http://dummyimage.com/129x100.png/5fa2dd/ffffff","phone":"672-550-6785"},
{"id":446,"name":"Risa Cantrell","service":"Registered Nurse","location":"Apt 346","rating":2,"profileImage":"http://dummyimage.com/102x100.png/dddddd/000000","phone":"391-908-3832"},
{"id":447,"name":"Shani Phillip","service":"Nuclear Power Engineer","location":"Room 1235","rating":3,"profileImage":"http://dummyimage.com/191x100.png/ff4444/ffffff","phone":"255-975-2359"},
{"id":448,"name":"Carroll Ogborn","service":"Associate Professor","location":"Room 760","rating":1,"profileImage":"http://dummyimage.com/198x100.png/ff4444/ffffff","phone":"762-746-2240"},
{"id":449,"name":"Shalna Pennock","service":"VP Marketing","location":"11th Floor","rating":5,"profileImage":"http://dummyimage.com/232x100.png/cc0000/ffffff","phone":"943-206-5771"},
{"id":450,"name":"Maureen Ordemann","service":"Assistant Manager","location":"Suite 92","rating":1,"profileImage":"http://dummyimage.com/116x100.png/5fa2dd/ffffff","phone":"291-966-9268"},
{"id":451,"name":"Danice Ghiriardelli","service":"Accounting Assistant IV","location":"Room 1471","rating":2,"profileImage":"http://dummyimage.com/155x100.png/cc0000/ffffff","phone":"337-336-5744"},
{"id":452,"name":"Wheeler Whetton","service":"Senior Developer","location":"Room 1953","rating":2,"profileImage":"http://dummyimage.com/223x100.png/dddddd/000000","phone":"130-463-7203"},
{"id":453,"name":"Maryjane Faulconbridge","service":"GIS Technical Architect","location":"13th Floor","rating":1,"profileImage":"http://dummyimage.com/177x100.png/dddddd/000000","phone":"278-326-4297"},
{"id":454,"name":"Inessa Dickinson","service":"Structural Engineer","location":"Apt 635","rating":5,"profileImage":"http://dummyimage.com/213x100.png/5fa2dd/ffffff","phone":"386-357-2281"},
{"id":455,"name":"Antonino Danit","service":"Nuclear Power Engineer","location":"Room 1461","rating":1,"profileImage":"http://dummyimage.com/228x100.png/ff4444/ffffff","phone":"566-412-1194"},
{"id":456,"name":"Germaine Wife","service":"Media Manager III","location":"20th Floor","rating":4,"profileImage":"http://dummyimage.com/175x100.png/dddddd/000000","phone":"363-764-1580"},
{"id":457,"name":"Rollie Mathivon","service":"Help Desk Operator","location":"13th Floor","rating":1,"profileImage":"http://dummyimage.com/177x100.png/dddddd/000000","phone":"228-623-6436"},
{"id":458,"name":"Norbert Cecil","service":"Help Desk Operator","location":"PO Box 56955","rating":4,"profileImage":"http://dummyimage.com/136x100.png/dddddd/000000","phone":"739-330-3892"},
{"id":459,"name":"Bobbye Tarbath","service":"Community Outreach Specialist","location":"Suite 14","rating":1,"profileImage":"http://dummyimage.com/222x100.png/dddddd/000000","phone":"822-721-9942"},
{"id":460,"name":"Nancey Kimm","service":"Environmental Specialist","location":"Apt 478","rating":3,"profileImage":"http://dummyimage.com/146x100.png/dddddd/000000","phone":"629-940-0637"},
{"id":461,"name":"Valenka Minshull","service":"Analog Circuit Design manager","location":"Room 206","rating":2,"profileImage":"http://dummyimage.com/150x100.png/ff4444/ffffff","phone":"271-232-9966"},
{"id":462,"name":"Marthe Riddall","service":"Financial Analyst","location":"Room 901","rating":2,"profileImage":"http://dummyimage.com/149x100.png/cc0000/ffffff","phone":"182-429-3361"},
{"id":463,"name":"Jule Ludwell","service":"Chief Design Engineer","location":"Apt 1596","rating":2,"profileImage":"http://dummyimage.com/211x100.png/5fa2dd/ffffff","phone":"361-690-5805"},
{"id":464,"name":"Leelah Guyonneau","service":"Chemical Engineer","location":"Room 1121","rating":1,"profileImage":"http://dummyimage.com/227x100.png/dddddd/000000","phone":"467-308-0027"},
{"id":465,"name":"Angelika McKeown","service":"Staff Accountant I","location":"11th Floor","rating":1,"profileImage":"http://dummyimage.com/249x100.png/5fa2dd/ffffff","phone":"735-556-8743"},
{"id":466,"name":"Chrysler Rycroft","service":"Automation Specialist III","location":"14th Floor","rating":4,"profileImage":"http://dummyimage.com/207x100.png/cc0000/ffffff","phone":"786-958-1423"},
{"id":467,"name":"Giusto Martinet","service":"Tax Accountant","location":"16th Floor","rating":5,"profileImage":"http://dummyimage.com/214x100.png/dddddd/000000","phone":"356-419-1673"},
{"id":468,"name":"Jessamyn O'Connell","service":"Data Coordinator","location":"Apt 1972","rating":3,"profileImage":"http://dummyimage.com/113x100.png/ff4444/ffffff","phone":"564-449-1600"},
{"id":469,"name":"Anderson Brandenberg","service":"Web Developer III","location":"Apt 1497","rating":4,"profileImage":"http://dummyimage.com/237x100.png/ff4444/ffffff","phone":"726-496-4016"},
{"id":470,"name":"Paulette Cornely","service":"Developer II","location":"5th Floor","rating":2,"profileImage":"http://dummyimage.com/250x100.png/5fa2dd/ffffff","phone":"139-318-4388"},
{"id":471,"name":"Chiquita Vaune","service":"Statistician I","location":"Room 1995","rating":4,"profileImage":"http://dummyimage.com/202x100.png/dddddd/000000","phone":"918-174-6415"},
{"id":472,"name":"Jere Trebble","service":"Assistant Manager","location":"Room 490","rating":4,"profileImage":"http://dummyimage.com/135x100.png/5fa2dd/ffffff","phone":"566-461-7077"},
{"id":473,"name":"Jacquetta Barke","service":"Technical Writer","location":"Apt 888","rating":3,"profileImage":"http://dummyimage.com/232x100.png/5fa2dd/ffffff","phone":"937-576-1622"},
{"id":474,"name":"Arvy Cowthart","service":"Help Desk Technician","location":"Suite 37","rating":1,"profileImage":"http://dummyimage.com/195x100.png/dddddd/000000","phone":"123-888-6421"},
{"id":475,"name":"Aubrette Brimblecomb","service":"Research Nurse","location":"Room 18","rating":5,"profileImage":"http://dummyimage.com/134x100.png/ff4444/ffffff","phone":"702-408-9603"},
{"id":476,"name":"Hugh Drakes","service":"Senior Editor","location":"Suite 15","rating":1,"profileImage":"http://dummyimage.com/165x100.png/cc0000/ffffff","phone":"714-895-5435"},
{"id":477,"name":"Tanitansy Collinson","service":"Environmental Specialist","location":"Suite 79","rating":1,"profileImage":"http://dummyimage.com/180x100.png/dddddd/000000","phone":"384-975-2827"},
{"id":478,"name":"Veda Cockhill","service":"Database Administrator I","location":"12th Floor","rating":1,"profileImage":"http://dummyimage.com/148x100.png/cc0000/ffffff","phone":"863-626-2467"},
{"id":479,"name":"Kirby Izzat","service":"Senior Editor","location":"Suite 30","rating":4,"profileImage":"http://dummyimage.com/132x100.png/dddddd/000000","phone":"968-603-5605"},
{"id":480,"name":"Abby Greenacre","service":"Web Developer IV","location":"Apt 1553","rating":5,"profileImage":"http://dummyimage.com/103x100.png/cc0000/ffffff","phone":"602-292-7110"},
{"id":481,"name":"Fletch Huitt","service":"Safety Technician I","location":"6th Floor","rating":3,"profileImage":"http://dummyimage.com/179x100.png/5fa2dd/ffffff","phone":"249-532-9091"},
{"id":482,"name":"Constantin Girtin","service":"Programmer Analyst I","location":"10th Floor","rating":1,"profileImage":"http://dummyimage.com/112x100.png/cc0000/ffffff","phone":"620-808-1596"},
{"id":483,"name":"Win Schutze","service":"Systems Administrator I","location":"8th Floor","rating":4,"profileImage":"http://dummyimage.com/182x100.png/dddddd/000000","phone":"583-524-1767"},
{"id":484,"name":"Chlo Disbrey","service":"Database Administrator II","location":"PO Box 97702","rating":1,"profileImage":"http://dummyimage.com/136x100.png/dddddd/000000","phone":"683-709-0460"},
{"id":485,"name":"Martin Babbe","service":"Environmental Tech","location":"20th Floor","rating":5,"profileImage":"http://dummyimage.com/238x100.png/5fa2dd/ffffff","phone":"829-737-6612"},
{"id":486,"name":"Jehu MacClancey","service":"Financial Analyst","location":"PO Box 55091","rating":2,"profileImage":"http://dummyimage.com/238x100.png/dddddd/000000","phone":"136-592-5391"},
{"id":487,"name":"Roscoe Relf","service":"Software Test Engineer I","location":"PO Box 93617","rating":5,"profileImage":"http://dummyimage.com/212x100.png/cc0000/ffffff","phone":"721-815-8954"},
{"id":488,"name":"Floyd O'Quin","service":"Assistant Manager","location":"PO Box 4479","rating":3,"profileImage":"http://dummyimage.com/106x100.png/dddddd/000000","phone":"101-548-8984"},
{"id":489,"name":"Myrtice De Vaar","service":"Geological Engineer","location":"20th Floor","rating":5,"profileImage":"http://dummyimage.com/104x100.png/cc0000/ffffff","phone":"892-282-1559"},
{"id":490,"name":"Ferdinande Rooper","service":"Occupational Therapist","location":"Apt 1863","rating":4,"profileImage":"http://dummyimage.com/248x100.png/dddddd/000000","phone":"723-431-6287"},
{"id":491,"name":"Lowell Purvey","service":"Food Chemist","location":"14th Floor","rating":4,"profileImage":"http://dummyimage.com/156x100.png/ff4444/ffffff","phone":"977-490-4603"},
{"id":492,"name":"Myrtia Sabater","service":"Software Test Engineer II","location":"Room 763","rating":4,"profileImage":"http://dummyimage.com/103x100.png/ff4444/ffffff","phone":"361-625-0337"},
{"id":493,"name":"Kippy Kilday","service":"Senior Developer","location":"13th Floor","rating":4,"profileImage":"http://dummyimage.com/213x100.png/ff4444/ffffff","phone":"355-697-1146"},
{"id":494,"name":"Herve Scopes","service":"Staff Scientist","location":"Room 1","rating":4,"profileImage":"http://dummyimage.com/180x100.png/5fa2dd/ffffff","phone":"263-258-7363"},
{"id":495,"name":"Franky Beechcraft","service":"Assistant Manager","location":"Room 1241","rating":5,"profileImage":"http://dummyimage.com/166x100.png/dddddd/000000","phone":"298-866-2795"},
{"id":496,"name":"Lesley Martinon","service":"Cost Accountant","location":"Suite 42","rating":5,"profileImage":"http://dummyimage.com/124x100.png/dddddd/000000","phone":"956-244-7408"},
{"id":497,"name":"Marita Huddle","service":"Librarian","location":"Room 228","rating":5,"profileImage":"http://dummyimage.com/178x100.png/ff4444/ffffff","phone":"206-160-1243"},
{"id":498,"name":"Norine Kennedy","service":"Developer IV","location":"Apt 1067","rating":4,"profileImage":"http://dummyimage.com/214x100.png/dddddd/000000","phone":"776-973-2273"},
{"id":499,"name":"Duky Laetham","service":"Graphic Designer","location":"Room 1406","rating":3,"profileImage":"http://dummyimage.com/173x100.png/5fa2dd/ffffff","phone":"856-354-7310"},
{"id":500,"name":"Ferdinand Harley","service":"Operator","location":"1st Floor","rating":1,"profileImage":"http://dummyimage.com/111x100.png/ff4444/ffffff","phone":"696-125-7407"},
{"id":501,"name":"Deerdre Spellacy","service":"Food Chemist","location":"Apt 1696","rating":4,"profileImage":"http://dummyimage.com/182x100.png/dddddd/000000","phone":"401-205-6295"},
{"id":502,"name":"Elnore Karadzas","service":"VP Marketing","location":"5th Floor","rating":2,"profileImage":"http://dummyimage.com/162x100.png/cc0000/ffffff","phone":"899-512-1663"},
{"id":503,"name":"Ronda Michieli","service":"Systems Administrator II","location":"Room 677","rating":1,"profileImage":"http://dummyimage.com/160x100.png/dddddd/000000","phone":"953-336-3226"},
{"id":504,"name":"Idette Healey","service":"Safety Technician IV","location":"Apt 1025","rating":4,"profileImage":"http://dummyimage.com/132x100.png/ff4444/ffffff","phone":"180-597-7563"},
{"id":505,"name":"Amandi Cowlishaw","service":"Statistician IV","location":"Suite 33","rating":2,"profileImage":"http://dummyimage.com/171x100.png/5fa2dd/ffffff","phone":"516-409-2961"},
{"id":506,"name":"Drugi Shackleton","service":"Internal Auditor","location":"Apt 882","rating":5,"profileImage":"http://dummyimage.com/106x100.png/ff4444/ffffff","phone":"403-355-8537"},
{"id":507,"name":"Opal Spellman","service":"Recruiting Manager","location":"Room 567","rating":5,"profileImage":"http://dummyimage.com/206x100.png/5fa2dd/ffffff","phone":"342-629-8711"},
{"id":508,"name":"Cloris Courvert","service":"Civil Engineer","location":"Suite 23","rating":3,"profileImage":"http://dummyimage.com/157x100.png/5fa2dd/ffffff","phone":"830-143-2056"},
{"id":509,"name":"Elbertine Perelli","service":"Computer Systems Analyst IV","location":"Apt 634","rating":2,"profileImage":"http://dummyimage.com/232x100.png/cc0000/ffffff","phone":"278-880-5958"},
{"id":510,"name":"Etan Tait","service":"Senior Quality Engineer","location":"PO Box 70647","rating":2,"profileImage":"http://dummyimage.com/143x100.png/dddddd/000000","phone":"108-948-0294"},
{"id":511,"name":"Trixi Ferryn","service":"Assistant Manager","location":"Room 1706","rating":4,"profileImage":"http://dummyimage.com/195x100.png/dddddd/000000","phone":"130-213-2051"},
{"id":512,"name":"Sissie Mundle","service":"Pharmacist","location":"PO Box 62875","rating":3,"profileImage":"http://dummyimage.com/241x100.png/dddddd/000000","phone":"643-277-7352"},
{"id":513,"name":"Michal Sheircliffe","service":"Information Systems Manager","location":"PO Box 6020","rating":2,"profileImage":"http://dummyimage.com/163x100.png/5fa2dd/ffffff","phone":"928-298-3652"},
{"id":514,"name":"Allie Ramet","service":"Accountant III","location":"4th Floor","rating":1,"profileImage":"http://dummyimage.com/183x100.png/ff4444/ffffff","phone":"884-305-5433"},
{"id":515,"name":"Frank Sturr","service":"Staff Accountant II","location":"PO Box 86177","rating":4,"profileImage":"http://dummyimage.com/214x100.png/5fa2dd/ffffff","phone":"462-148-0211"},
{"id":516,"name":"Baillie Drinkel","service":"Staff Scientist","location":"Room 797","rating":1,"profileImage":"http://dummyimage.com/231x100.png/ff4444/ffffff","phone":"893-937-5072"},
{"id":517,"name":"Baxy Sterke","service":"Civil Engineer","location":"13th Floor","rating":5,"profileImage":"http://dummyimage.com/156x100.png/ff4444/ffffff","phone":"276-315-4020"},
{"id":518,"name":"Sara-ann Covelle","service":"Librarian","location":"Suite 74","rating":3,"profileImage":"http://dummyimage.com/140x100.png/5fa2dd/ffffff","phone":"962-862-4018"},
{"id":519,"name":"Wilmar Baish","service":"Senior Financial Analyst","location":"Apt 1824","rating":3,"profileImage":"http://dummyimage.com/197x100.png/5fa2dd/ffffff","phone":"133-317-2125"},
{"id":520,"name":"Elianora Ivashkov","service":"VP Accounting","location":"Room 1840","rating":2,"profileImage":"http://dummyimage.com/215x100.png/5fa2dd/ffffff","phone":"109-799-2888"},
{"id":521,"name":"Nikki Durling","service":"Programmer Analyst IV","location":"Room 1848","rating":4,"profileImage":"http://dummyimage.com/204x100.png/5fa2dd/ffffff","phone":"817-850-7501"},
{"id":522,"name":"Jaynell Churms","service":"Health Coach III","location":"6th Floor","rating":5,"profileImage":"http://dummyimage.com/105x100.png/ff4444/ffffff","phone":"293-577-2213"},
{"id":523,"name":"Sisely Coventon","service":"GIS Technical Architect","location":"Room 864","rating":1,"profileImage":"http://dummyimage.com/245x100.png/ff4444/ffffff","phone":"113-711-2251"},
{"id":524,"name":"Dorris Tellenbrook","service":"Internal Auditor","location":"PO Box 20464","rating":2,"profileImage":"http://dummyimage.com/216x100.png/cc0000/ffffff","phone":"921-352-3971"},
{"id":525,"name":"Tera Knibb","service":"Automation Specialist I","location":"Suite 29","rating":1,"profileImage":"http://dummyimage.com/240x100.png/dddddd/000000","phone":"405-125-4854"},
{"id":526,"name":"Benny Arnopp","service":"Senior Editor","location":"8th Floor","rating":4,"profileImage":"http://dummyimage.com/103x100.png/5fa2dd/ffffff","phone":"835-211-4244"},
{"id":527,"name":"Terrie Fairlaw","service":"Analyst Programmer","location":"Suite 19","rating":1,"profileImage":"http://dummyimage.com/104x100.png/dddddd/000000","phone":"616-660-1273"},
{"id":528,"name":"Lanna Puttrell","service":"Senior Cost Accountant","location":"Room 1151","rating":1,"profileImage":"http://dummyimage.com/151x100.png/dddddd/000000","phone":"770-573-1235"},
{"id":529,"name":"Bevon Smidmor","service":"Occupational Therapist","location":"Room 1401","rating":2,"profileImage":"http://dummyimage.com/249x100.png/ff4444/ffffff","phone":"107-256-1416"},
{"id":530,"name":"Yvette Glasard","service":"Electrical Engineer","location":"Suite 46","rating":3,"profileImage":"http://dummyimage.com/174x100.png/dddddd/000000","phone":"732-798-3658"},
{"id":531,"name":"Ody Brenard","service":"Marketing Manager","location":"PO Box 68462","rating":1,"profileImage":"http://dummyimage.com/129x100.png/ff4444/ffffff","phone":"394-926-2696"},
{"id":532,"name":"Harris Stillert","service":"Sales Representative","location":"Suite 95","rating":3,"profileImage":"http://dummyimage.com/124x100.png/5fa2dd/ffffff","phone":"258-272-2313"},
{"id":533,"name":"Gilburt Ferrieres","service":"Account Executive","location":"Apt 1559","rating":2,"profileImage":"http://dummyimage.com/250x100.png/ff4444/ffffff","phone":"268-954-0627"},
{"id":534,"name":"Farlee Von Brook","service":"Product Engineer","location":"Suite 34","rating":2,"profileImage":"http://dummyimage.com/101x100.png/5fa2dd/ffffff","phone":"902-862-6559"},
{"id":535,"name":"Davine Chidler","service":"Engineer II","location":"17th Floor","rating":2,"profileImage":"http://dummyimage.com/201x100.png/cc0000/ffffff","phone":"693-548-3887"},
{"id":536,"name":"Atalanta Kleisle","service":"Accountant I","location":"PO Box 65597","rating":5,"profileImage":"http://dummyimage.com/190x100.png/dddddd/000000","phone":"263-742-7602"},
{"id":537,"name":"Maryellen Briscam","service":"GIS Technical Architect","location":"Suite 48","rating":4,"profileImage":"http://dummyimage.com/209x100.png/dddddd/000000","phone":"244-266-5133"},
{"id":538,"name":"Katinka Pratte","service":"Research Assistant III","location":"PO Box 23790","rating":1,"profileImage":"http://dummyimage.com/187x100.png/dddddd/000000","phone":"829-667-3629"},
{"id":539,"name":"Cherianne Huxter","service":"Account Representative IV","location":"Apt 1902","rating":3,"profileImage":"http://dummyimage.com/246x100.png/ff4444/ffffff","phone":"419-551-9667"},
{"id":540,"name":"Jeanie Ashborne","service":"Professor","location":"PO Box 52644","rating":4,"profileImage":"http://dummyimage.com/182x100.png/5fa2dd/ffffff","phone":"217-983-9805"},
{"id":541,"name":"Suellen Scrase","service":"Internal Auditor","location":"16th Floor","rating":4,"profileImage":"http://dummyimage.com/249x100.png/ff4444/ffffff","phone":"533-741-7581"},
{"id":542,"name":"Carol-jean Hardingham","service":"Software Engineer I","location":"Suite 62","rating":5,"profileImage":"http://dummyimage.com/104x100.png/dddddd/000000","phone":"266-527-3661"},
{"id":543,"name":"Vladamir Deex","service":"Assistant Manager","location":"Suite 72","rating":2,"profileImage":"http://dummyimage.com/233x100.png/5fa2dd/ffffff","phone":"159-936-7000"},
{"id":544,"name":"Denney Krienke","service":"Health Coach II","location":"Apt 1023","rating":3,"profileImage":"http://dummyimage.com/234x100.png/5fa2dd/ffffff","phone":"870-451-3837"},
{"id":545,"name":"Audrye Craythorne","service":"VP Product Management","location":"5th Floor","rating":5,"profileImage":"http://dummyimage.com/149x100.png/dddddd/000000","phone":"679-972-8831"},
{"id":546,"name":"Chicky Yusupov","service":"Staff Scientist","location":"Room 99","rating":4,"profileImage":"http://dummyimage.com/188x100.png/5fa2dd/ffffff","phone":"686-259-1716"},
{"id":547,"name":"Rachele Zuann","service":"Help Desk Technician","location":"3rd Floor","rating":1,"profileImage":"http://dummyimage.com/173x100.png/ff4444/ffffff","phone":"934-664-4817"},
{"id":548,"name":"Rayner O'Day","service":"Structural Engineer","location":"Suite 83","rating":4,"profileImage":"http://dummyimage.com/161x100.png/5fa2dd/ffffff","phone":"172-899-5988"},
{"id":549,"name":"Rosalinde Chaperlin","service":"Geological Engineer","location":"Apt 882","rating":1,"profileImage":"http://dummyimage.com/196x100.png/dddddd/000000","phone":"623-886-4889"},
{"id":550,"name":"Rici Terlinden","service":"Junior Executive","location":"Suite 18","rating":3,"profileImage":"http://dummyimage.com/237x100.png/5fa2dd/ffffff","phone":"827-958-7241"},
{"id":551,"name":"Florina Gellately","service":"Dental Hygienist","location":"16th Floor","rating":3,"profileImage":"http://dummyimage.com/133x100.png/5fa2dd/ffffff","phone":"561-309-4367"},
{"id":552,"name":"Verene Carlos","service":"Data Coordinator","location":"Room 158","rating":3,"profileImage":"http://dummyimage.com/174x100.png/ff4444/ffffff","phone":"804-673-8052"},
{"id":553,"name":"Craig Verrier","service":"Project Manager","location":"16th Floor","rating":5,"profileImage":"http://dummyimage.com/215x100.png/ff4444/ffffff","phone":"855-581-4483"},
{"id":554,"name":"Abbott Everest","service":"Analog Circuit Design manager","location":"13th Floor","rating":1,"profileImage":"http://dummyimage.com/200x100.png/dddddd/000000","phone":"845-441-3145"},
{"id":555,"name":"Lesley Figge","service":"Paralegal","location":"Room 1191","rating":1,"profileImage":"http://dummyimage.com/159x100.png/dddddd/000000","phone":"262-600-9856"},
{"id":556,"name":"Kippar Dutton","service":"Assistant Manager","location":"15th Floor","rating":2,"profileImage":"http://dummyimage.com/116x100.png/cc0000/ffffff","phone":"492-593-0892"},
{"id":557,"name":"Jaquelyn Manterfield","service":"Media Manager IV","location":"Room 22","rating":5,"profileImage":"http://dummyimage.com/196x100.png/dddddd/000000","phone":"631-532-5014"},
{"id":558,"name":"Marline Hallyburton","service":"Recruiter","location":"PO Box 16145","rating":1,"profileImage":"http://dummyimage.com/228x100.png/cc0000/ffffff","phone":"732-204-0091"},
{"id":559,"name":"Hyacinthe Cunniff","service":"Statistician IV","location":"6th Floor","rating":4,"profileImage":"http://dummyimage.com/245x100.png/5fa2dd/ffffff","phone":"308-141-5945"},
{"id":560,"name":"Yvette Gynni","service":"Financial Analyst","location":"Suite 89","rating":5,"profileImage":"http://dummyimage.com/167x100.png/cc0000/ffffff","phone":"786-315-0778"},
{"id":561,"name":"Thaddeus Nardrup","service":"Civil Engineer","location":"Room 258","rating":1,"profileImage":"http://dummyimage.com/168x100.png/cc0000/ffffff","phone":"175-811-4610"},
{"id":562,"name":"Deedee Swallow","service":"Senior Developer","location":"Suite 18","rating":2,"profileImage":"http://dummyimage.com/112x100.png/ff4444/ffffff","phone":"953-765-0764"},
{"id":563,"name":"Windham Blowfield","service":"Desktop Support Technician","location":"PO Box 28595","rating":2,"profileImage":"http://dummyimage.com/244x100.png/cc0000/ffffff","phone":"980-206-7752"},
{"id":564,"name":"Kaia Kaiser","service":"Help Desk Operator","location":"Apt 1040","rating":2,"profileImage":"http://dummyimage.com/159x100.png/cc0000/ffffff","phone":"388-908-0871"},
{"id":565,"name":"Miran Ginie","service":"Nurse Practicioner","location":"Suite 36","rating":4,"profileImage":"http://dummyimage.com/106x100.png/cc0000/ffffff","phone":"136-141-6494"},
{"id":566,"name":"Silas Clayhill","service":"VP Sales","location":"Room 1357","rating":3,"profileImage":"http://dummyimage.com/185x100.png/ff4444/ffffff","phone":"718-561-4768"},
{"id":567,"name":"Cristie Paulisch","service":"Sales Associate","location":"PO Box 7319","rating":2,"profileImage":"http://dummyimage.com/129x100.png/dddddd/000000","phone":"735-903-8005"},
{"id":568,"name":"Cloe Boschmann","service":"Mechanical Systems Engineer","location":"Suite 32","rating":3,"profileImage":"http://dummyimage.com/213x100.png/5fa2dd/ffffff","phone":"128-434-0847"},
{"id":569,"name":"Benton Roscam","service":"Financial Analyst","location":"Apt 1849","rating":1,"profileImage":"http://dummyimage.com/228x100.png/ff4444/ffffff","phone":"604-354-0197"},
{"id":570,"name":"Sarine Toopin","service":"Teacher","location":"PO Box 92546","rating":3,"profileImage":"http://dummyimage.com/134x100.png/cc0000/ffffff","phone":"453-367-7970"},
{"id":571,"name":"Elisabet Piper","service":"Payment Adjustment Coordinator","location":"Room 963","rating":1,"profileImage":"http://dummyimage.com/118x100.png/5fa2dd/ffffff","phone":"224-850-2740"},
{"id":572,"name":"Barbey Naisbet","service":"Quality Control Specialist","location":"Apt 1239","rating":4,"profileImage":"http://dummyimage.com/198x100.png/ff4444/ffffff","phone":"276-631-5728"},
{"id":573,"name":"Marcella Brandes","service":"Associate Professor","location":"PO Box 13321","rating":4,"profileImage":"http://dummyimage.com/222x100.png/5fa2dd/ffffff","phone":"569-906-5509"},
{"id":574,"name":"Angelina Fonso","service":"Project Manager","location":"Suite 73","rating":3,"profileImage":"http://dummyimage.com/121x100.png/dddddd/000000","phone":"813-900-3198"},
{"id":575,"name":"Phaidra O'Drought","service":"Information Systems Manager","location":"Room 296","rating":1,"profileImage":"http://dummyimage.com/183x100.png/ff4444/ffffff","phone":"746-161-6040"},
{"id":576,"name":"Gallagher Weson","service":"Nurse Practicioner","location":"5th Floor","rating":1,"profileImage":"http://dummyimage.com/241x100.png/dddddd/000000","phone":"542-191-7946"},
{"id":577,"name":"Kayle Varnham","service":"Design Engineer","location":"PO Box 18740","rating":3,"profileImage":"http://dummyimage.com/221x100.png/dddddd/000000","phone":"424-538-7571"},
{"id":578,"name":"Bonny Sneyd","service":"Executive Secretary","location":"Suite 25","rating":1,"profileImage":"http://dummyimage.com/134x100.png/dddddd/000000","phone":"868-106-4767"},
{"id":579,"name":"Ward Wynrahame","service":"Help Desk Technician","location":"Apt 1360","rating":3,"profileImage":"http://dummyimage.com/152x100.png/5fa2dd/ffffff","phone":"713-796-3810"},
{"id":580,"name":"Fanechka O'Hannigan","service":"Executive Secretary","location":"13th Floor","rating":2,"profileImage":"http://dummyimage.com/166x100.png/dddddd/000000","phone":"673-886-9983"},
{"id":581,"name":"Tyrus Clemes","service":"Administrative Assistant III","location":"PO Box 31956","rating":5,"profileImage":"http://dummyimage.com/158x100.png/dddddd/000000","phone":"714-769-5426"},
{"id":582,"name":"Brand Samms","service":"Community Outreach Specialist","location":"PO Box 28556","rating":1,"profileImage":"http://dummyimage.com/153x100.png/5fa2dd/ffffff","phone":"250-368-2714"},
{"id":583,"name":"Finn McFetridge","service":"Media Manager III","location":"PO Box 69039","rating":2,"profileImage":"http://dummyimage.com/123x100.png/cc0000/ffffff","phone":"850-354-4619"},
{"id":584,"name":"Marlee Coysh","service":"Project Manager","location":"Apt 1451","rating":3,"profileImage":"http://dummyimage.com/133x100.png/dddddd/000000","phone":"293-283-1198"},
{"id":585,"name":"Kerstin Iacovielli","service":"Electrical Engineer","location":"Suite 66","rating":4,"profileImage":"http://dummyimage.com/225x100.png/cc0000/ffffff","phone":"591-137-8927"},
{"id":586,"name":"Armand Hazleton","service":"Actuary","location":"Suite 67","rating":5,"profileImage":"http://dummyimage.com/208x100.png/5fa2dd/ffffff","phone":"497-343-5098"},
{"id":587,"name":"Diane Assard","service":"Human Resources Assistant I","location":"Apt 14","rating":4,"profileImage":"http://dummyimage.com/223x100.png/ff4444/ffffff","phone":"348-657-8840"},
{"id":588,"name":"Cathleen Kennicott","service":"Geological Engineer","location":"PO Box 61204","rating":3,"profileImage":"http://dummyimage.com/144x100.png/ff4444/ffffff","phone":"184-106-5519"},
{"id":589,"name":"Ingamar Larmet","service":"Pharmacist","location":"Room 771","rating":4,"profileImage":"http://dummyimage.com/249x100.png/cc0000/ffffff","phone":"257-546-4267"},
{"id":590,"name":"Zelda Skey","service":"Environmental Specialist","location":"15th Floor","rating":3,"profileImage":"http://dummyimage.com/193x100.png/ff4444/ffffff","phone":"224-796-5990"},
{"id":591,"name":"Josie Mettrick","service":"Associate Professor","location":"Suite 91","rating":1,"profileImage":"http://dummyimage.com/231x100.png/5fa2dd/ffffff","phone":"830-730-7667"},
{"id":592,"name":"Luca Fulmen","service":"Chemical Engineer","location":"Apt 864","rating":4,"profileImage":"http://dummyimage.com/165x100.png/ff4444/ffffff","phone":"627-685-1228"},
{"id":593,"name":"Abbie Shervil","service":"Chemical Engineer","location":"20th Floor","rating":2,"profileImage":"http://dummyimage.com/117x100.png/cc0000/ffffff","phone":"454-578-9912"},
{"id":594,"name":"Rodge Thickett","service":"Financial Advisor","location":"Suite 74","rating":3,"profileImage":"http://dummyimage.com/149x100.png/ff4444/ffffff","phone":"115-695-4108"},
{"id":595,"name":"Raye Kornousek","service":"Account Executive","location":"Suite 94","rating":5,"profileImage":"http://dummyimage.com/221x100.png/5fa2dd/ffffff","phone":"119-405-9435"},
{"id":596,"name":"Carma Darbon","service":"Environmental Specialist","location":"Apt 1665","rating":5,"profileImage":"http://dummyimage.com/168x100.png/5fa2dd/ffffff","phone":"590-116-2989"},
{"id":597,"name":"Evyn Penley","service":"Web Designer I","location":"Room 69","rating":5,"profileImage":"http://dummyimage.com/246x100.png/5fa2dd/ffffff","phone":"710-842-5872"},
{"id":598,"name":"Nolana Dalgleish","service":"Graphic Designer","location":"Apt 123","rating":5,"profileImage":"http://dummyimage.com/132x100.png/5fa2dd/ffffff","phone":"956-477-4858"},
{"id":599,"name":"Dionisio Jandel","service":"Executive Secretary","location":"PO Box 90595","rating":1,"profileImage":"http://dummyimage.com/115x100.png/dddddd/000000","phone":"916-276-5433"},
{"id":600,"name":"Terri-jo Snowman","service":"VP Sales","location":"PO Box 88924","rating":4,"profileImage":"http://dummyimage.com/217x100.png/dddddd/000000","phone":"959-834-3706"},
{"id":601,"name":"Cary Paris","service":"GIS Technical Architect","location":"10th Floor","rating":3,"profileImage":"http://dummyimage.com/139x100.png/dddddd/000000","phone":"918-954-5225"},
{"id":602,"name":"Stefanie Measen","service":"Engineer I","location":"PO Box 76183","rating":2,"profileImage":"http://dummyimage.com/113x100.png/ff4444/ffffff","phone":"965-407-0845"},
{"id":603,"name":"Wyndham Prop","service":"Operator","location":"6th Floor","rating":3,"profileImage":"http://dummyimage.com/191x100.png/dddddd/000000","phone":"882-198-2711"},
{"id":604,"name":"Happy Seide","service":"Senior Developer","location":"9th Floor","rating":3,"profileImage":"http://dummyimage.com/223x100.png/ff4444/ffffff","phone":"389-264-4185"},
{"id":605,"name":"Clarey Goldhill","service":"Software Test Engineer I","location":"Suite 47","rating":4,"profileImage":"http://dummyimage.com/187x100.png/dddddd/000000","phone":"869-640-4616"},
{"id":606,"name":"Zsa zsa Fanshaw","service":"Desktop Support Technician","location":"Apt 1818","rating":1,"profileImage":"http://dummyimage.com/149x100.png/cc0000/ffffff","phone":"333-410-3806"},
{"id":607,"name":"Townsend Buck","service":"Account Coordinator","location":"Apt 1226","rating":5,"profileImage":"http://dummyimage.com/192x100.png/cc0000/ffffff","phone":"114-414-6103"},
{"id":608,"name":"Diannne Janning","service":"Account Coordinator","location":"Room 63","rating":4,"profileImage":"http://dummyimage.com/216x100.png/5fa2dd/ffffff","phone":"185-556-9271"},
{"id":609,"name":"Estell Blackney","service":"Software Test Engineer II","location":"9th Floor","rating":3,"profileImage":"http://dummyimage.com/212x100.png/cc0000/ffffff","phone":"333-344-1807"},
{"id":610,"name":"Rivy Rushton","service":"Food Chemist","location":"18th Floor","rating":1,"profileImage":"http://dummyimage.com/218x100.png/ff4444/ffffff","phone":"237-698-0462"},
{"id":611,"name":"Margarita Shernock","service":"Web Designer III","location":"Apt 1636","rating":4,"profileImage":"http://dummyimage.com/143x100.png/5fa2dd/ffffff","phone":"768-204-8504"},
{"id":612,"name":"Renelle Rabl","service":"Senior Quality Engineer","location":"PO Box 3180","rating":3,"profileImage":"http://dummyimage.com/214x100.png/5fa2dd/ffffff","phone":"700-402-2666"},
{"id":613,"name":"Fallon Emsden","service":"Statistician IV","location":"Apt 1701","rating":4,"profileImage":"http://dummyimage.com/155x100.png/cc0000/ffffff","phone":"110-399-5244"},
{"id":614,"name":"Reginauld Jindrak","service":"Social Worker","location":"PO Box 10182","rating":2,"profileImage":"http://dummyimage.com/144x100.png/dddddd/000000","phone":"468-721-3875"},
{"id":615,"name":"Salvatore Hannis","service":"Accounting Assistant I","location":"Apt 1600","rating":1,"profileImage":"http://dummyimage.com/177x100.png/dddddd/000000","phone":"515-451-1861"},
{"id":616,"name":"Dorelle Goodban","service":"Web Designer II","location":"15th Floor","rating":1,"profileImage":"http://dummyimage.com/107x100.png/cc0000/ffffff","phone":"339-524-6110"},
{"id":617,"name":"Zerk Witts","service":"Database Administrator II","location":"8th Floor","rating":3,"profileImage":"http://dummyimage.com/202x100.png/ff4444/ffffff","phone":"612-291-5659"},
{"id":618,"name":"Katalin Gutridge","service":"Registered Nurse","location":"Apt 1260","rating":3,"profileImage":"http://dummyimage.com/174x100.png/cc0000/ffffff","phone":"476-218-1926"},
{"id":619,"name":"Crissie Shand","service":"Developer III","location":"Suite 16","rating":1,"profileImage":"http://dummyimage.com/130x100.png/dddddd/000000","phone":"807-915-8804"},
{"id":620,"name":"Jobina Sansbury","service":"Software Consultant","location":"PO Box 44449","rating":5,"profileImage":"http://dummyimage.com/250x100.png/cc0000/ffffff","phone":"242-168-1273"},
{"id":621,"name":"Pippy O' Dooley","service":"Data Coordinator","location":"Room 66","rating":4,"profileImage":"http://dummyimage.com/142x100.png/cc0000/ffffff","phone":"935-530-0201"},
{"id":622,"name":"Nelia Fellona","service":"Safety Technician IV","location":"11th Floor","rating":1,"profileImage":"http://dummyimage.com/107x100.png/dddddd/000000","phone":"427-520-7292"},
{"id":623,"name":"Libbey McKinn","service":"Engineer IV","location":"Room 521","rating":3,"profileImage":"http://dummyimage.com/250x100.png/cc0000/ffffff","phone":"721-969-0445"},
{"id":624,"name":"Miriam Cornick","service":"Internal Auditor","location":"Apt 652","rating":5,"profileImage":"http://dummyimage.com/184x100.png/cc0000/ffffff","phone":"932-156-5634"},
{"id":625,"name":"Vassili Espinet","service":"Junior Executive","location":"Suite 45","rating":4,"profileImage":"http://dummyimage.com/109x100.png/dddddd/000000","phone":"242-473-6760"},
{"id":626,"name":"Stacie Vasyuchov","service":"VP Accounting","location":"Room 1575","rating":1,"profileImage":"http://dummyimage.com/216x100.png/dddddd/000000","phone":"429-680-3730"},
{"id":627,"name":"Cherilyn Elman","service":"Internal Auditor","location":"Apt 1153","rating":3,"profileImage":"http://dummyimage.com/123x100.png/cc0000/ffffff","phone":"856-377-6422"},
{"id":628,"name":"Sande Ginie","service":"Research Associate","location":"PO Box 42275","rating":4,"profileImage":"http://dummyimage.com/249x100.png/ff4444/ffffff","phone":"929-814-8241"},
{"id":629,"name":"Glenn Angric","service":"Electrical Engineer","location":"PO Box 86608","rating":4,"profileImage":"http://dummyimage.com/152x100.png/cc0000/ffffff","phone":"424-411-7457"},
{"id":630,"name":"Kristel Kopelman","service":"Account Representative III","location":"Apt 1872","rating":1,"profileImage":"http://dummyimage.com/208x100.png/5fa2dd/ffffff","phone":"423-728-6945"},
{"id":631,"name":"Bud Compson","service":"Computer Systems Analyst II","location":"Suite 35","rating":1,"profileImage":"http://dummyimage.com/183x100.png/dddddd/000000","phone":"255-705-3096"},
{"id":632,"name":"Alden Broader","service":"Associate Professor","location":"Suite 61","rating":4,"profileImage":"http://dummyimage.com/124x100.png/cc0000/ffffff","phone":"677-406-6620"},
{"id":633,"name":"Hedvig Mundall","service":"Assistant Media Planner","location":"12th Floor","rating":5,"profileImage":"http://dummyimage.com/215x100.png/cc0000/ffffff","phone":"773-698-1395"},
{"id":634,"name":"Bartolomeo Hasty","service":"Professor","location":"Room 516","rating":4,"profileImage":"http://dummyimage.com/222x100.png/ff4444/ffffff","phone":"714-940-1402"},
{"id":635,"name":"Gerta Leyre","service":"Cost Accountant","location":"14th Floor","rating":3,"profileImage":"http://dummyimage.com/101x100.png/dddddd/000000","phone":"468-913-8885"},
{"id":636,"name":"Janka Cunio","service":"VP Product Management","location":"Suite 9","rating":2,"profileImage":"http://dummyimage.com/240x100.png/cc0000/ffffff","phone":"518-904-3932"},
{"id":637,"name":"Clem Snailham","service":"Programmer II","location":"Apt 654","rating":4,"profileImage":"http://dummyimage.com/207x100.png/ff4444/ffffff","phone":"184-787-5577"},
{"id":638,"name":"Cortney Vivians","service":"Research Nurse","location":"Apt 892","rating":3,"profileImage":"http://dummyimage.com/111x100.png/cc0000/ffffff","phone":"568-600-4493"},
{"id":639,"name":"Margery Zealy","service":"Analyst Programmer","location":"PO Box 33730","rating":1,"profileImage":"http://dummyimage.com/235x100.png/5fa2dd/ffffff","phone":"717-189-8444"},
{"id":640,"name":"Richy Dackombe","service":"Programmer Analyst III","location":"Room 201","rating":1,"profileImage":"http://dummyimage.com/146x100.png/5fa2dd/ffffff","phone":"492-949-3983"},
{"id":641,"name":"Arnuad Inchboard","service":"Registered Nurse","location":"Apt 1417","rating":1,"profileImage":"http://dummyimage.com/248x100.png/ff4444/ffffff","phone":"943-585-2687"},
{"id":642,"name":"Jacynth Padson","service":"Budget/Accounting Analyst I","location":"PO Box 36081","rating":4,"profileImage":"http://dummyimage.com/145x100.png/cc0000/ffffff","phone":"709-684-4499"},
{"id":643,"name":"Aldous Janney","service":"Desktop Support Technician","location":"Room 1512","rating":4,"profileImage":"http://dummyimage.com/112x100.png/ff4444/ffffff","phone":"254-619-4907"},
{"id":644,"name":"Licha Pinnigar","service":"Quality Engineer","location":"Room 1425","rating":5,"profileImage":"http://dummyimage.com/147x100.png/cc0000/ffffff","phone":"484-215-9888"},
{"id":645,"name":"Kesley Muglestone","service":"Accounting Assistant I","location":"PO Box 43889","rating":4,"profileImage":"http://dummyimage.com/120x100.png/dddddd/000000","phone":"560-187-7149"},
{"id":646,"name":"Ilyse Simants","service":"Business Systems Development Analyst","location":"PO Box 78928","rating":4,"profileImage":"http://dummyimage.com/169x100.png/dddddd/000000","phone":"137-539-7344"},
{"id":647,"name":"Roana Fairbridge","service":"VP Quality Control","location":"3rd Floor","rating":5,"profileImage":"http://dummyimage.com/166x100.png/5fa2dd/ffffff","phone":"736-162-8078"},
{"id":648,"name":"Walliw Argont","service":"Analyst Programmer","location":"Room 1971","rating":4,"profileImage":"http://dummyimage.com/190x100.png/cc0000/ffffff","phone":"845-642-9030"},
{"id":649,"name":"Flora Musterd","service":"Payment Adjustment Coordinator","location":"Apt 272","rating":1,"profileImage":"http://dummyimage.com/158x100.png/5fa2dd/ffffff","phone":"930-842-8898"},
{"id":650,"name":"Dorelle Lisciandri","service":"Programmer IV","location":"PO Box 69462","rating":3,"profileImage":"http://dummyimage.com/187x100.png/5fa2dd/ffffff","phone":"614-606-9168"},
{"id":651,"name":"Mario Veltman","service":"Payment Adjustment Coordinator","location":"Room 1817","rating":1,"profileImage":"http://dummyimage.com/239x100.png/dddddd/000000","phone":"628-927-7552"},
{"id":652,"name":"Hyman Tomasini","service":"Nurse","location":"Suite 86","rating":4,"profileImage":"http://dummyimage.com/239x100.png/cc0000/ffffff","phone":"621-448-5697"},
{"id":653,"name":"Ingelbert Gretton","service":"Tax Accountant","location":"Room 780","rating":3,"profileImage":"http://dummyimage.com/115x100.png/5fa2dd/ffffff","phone":"383-885-0920"},
{"id":654,"name":"Pietrek Hurndall","service":"Chemical Engineer","location":"Room 1430","rating":3,"profileImage":"http://dummyimage.com/250x100.png/ff4444/ffffff","phone":"954-205-7273"},
{"id":655,"name":"Billy Bartosik","service":"Systems Administrator II","location":"Room 1476","rating":5,"profileImage":"http://dummyimage.com/114x100.png/5fa2dd/ffffff","phone":"794-401-7564"},
{"id":656,"name":"Hedwiga Raysdale","service":"Mechanical Systems Engineer","location":"Room 456","rating":5,"profileImage":"http://dummyimage.com/131x100.png/5fa2dd/ffffff","phone":"597-196-6995"},
{"id":657,"name":"Magda Goodday","service":"Business Systems Development Analyst","location":"PO Box 16561","rating":2,"profileImage":"http://dummyimage.com/138x100.png/cc0000/ffffff","phone":"721-627-9260"},
{"id":658,"name":"Leese Liepins","service":"Chief Design Engineer","location":"PO Box 14885","rating":3,"profileImage":"http://dummyimage.com/168x100.png/dddddd/000000","phone":"753-139-5542"},
{"id":659,"name":"Adolph Kayser","service":"Chief Design Engineer","location":"PO Box 78984","rating":4,"profileImage":"http://dummyimage.com/179x100.png/dddddd/000000","phone":"608-579-9736"},
{"id":660,"name":"Tanny Jodkowski","service":"Human Resources Assistant IV","location":"Room 277","rating":3,"profileImage":"http://dummyimage.com/112x100.png/cc0000/ffffff","phone":"405-880-6748"},
{"id":661,"name":"Shaun Kynvin","service":"Director of Sales","location":"4th Floor","rating":1,"profileImage":"http://dummyimage.com/139x100.png/cc0000/ffffff","phone":"202-879-1785"},
{"id":662,"name":"Rudolfo Bleas","service":"Mechanical Systems Engineer","location":"13th Floor","rating":5,"profileImage":"http://dummyimage.com/107x100.png/cc0000/ffffff","phone":"334-571-1858"},
{"id":663,"name":"Washington Snellman","service":"Marketing Assistant","location":"Room 1926","rating":4,"profileImage":"http://dummyimage.com/231x100.png/5fa2dd/ffffff","phone":"423-916-9576"},
{"id":664,"name":"Kerstin Patriche","service":"VP Product Management","location":"Suite 2","rating":4,"profileImage":"http://dummyimage.com/121x100.png/cc0000/ffffff","phone":"975-764-3188"},
{"id":665,"name":"Dru Bohin","service":"Director of Sales","location":"Apt 1705","rating":4,"profileImage":"http://dummyimage.com/242x100.png/dddddd/000000","phone":"906-217-1089"},
{"id":666,"name":"Danie Cough","service":"Quality Control Specialist","location":"Apt 1449","rating":5,"profileImage":"http://dummyimage.com/214x100.png/ff4444/ffffff","phone":"890-953-1631"},
{"id":667,"name":"Zane Stobbie","service":"Nuclear Power Engineer","location":"3rd Floor","rating":1,"profileImage":"http://dummyimage.com/104x100.png/ff4444/ffffff","phone":"715-967-8531"},
{"id":668,"name":"Mira Comellini","service":"Senior Developer","location":"Apt 10","rating":1,"profileImage":"http://dummyimage.com/227x100.png/ff4444/ffffff","phone":"285-187-3182"},
{"id":669,"name":"Colet Prince","service":"Social Worker","location":"PO Box 82245","rating":5,"profileImage":"http://dummyimage.com/138x100.png/5fa2dd/ffffff","phone":"555-940-8563"},
{"id":670,"name":"Lynnett Gration","service":"Compensation Analyst","location":"PO Box 17328","rating":2,"profileImage":"http://dummyimage.com/145x100.png/5fa2dd/ffffff","phone":"287-835-4559"},
{"id":671,"name":"Gottfried Stranahan","service":"Professor","location":"PO Box 39588","rating":5,"profileImage":"http://dummyimage.com/231x100.png/dddddd/000000","phone":"447-739-3371"},
{"id":672,"name":"Filippa De Michetti","service":"GIS Technical Architect","location":"PO Box 78204","rating":5,"profileImage":"http://dummyimage.com/218x100.png/dddddd/000000","phone":"144-789-3326"},
{"id":673,"name":"Gayla Shorter","service":"Mechanical Systems Engineer","location":"Apt 1469","rating":5,"profileImage":"http://dummyimage.com/230x100.png/ff4444/ffffff","phone":"885-710-8614"},
{"id":674,"name":"Lu Lambirth","service":"Quality Engineer","location":"20th Floor","rating":2,"profileImage":"http://dummyimage.com/133x100.png/5fa2dd/ffffff","phone":"102-974-5537"},
{"id":675,"name":"Marietta Pawfoot","service":"Structural Engineer","location":"Suite 6","rating":2,"profileImage":"http://dummyimage.com/239x100.png/5fa2dd/ffffff","phone":"132-678-7660"},
{"id":676,"name":"Ajay Wagerfield","service":"Director of Sales","location":"Room 1600","rating":5,"profileImage":"http://dummyimage.com/131x100.png/ff4444/ffffff","phone":"841-794-5219"},
{"id":677,"name":"Wini Ibbotson","service":"Structural Analysis Engineer","location":"Room 188","rating":3,"profileImage":"http://dummyimage.com/227x100.png/cc0000/ffffff","phone":"946-653-9458"},
{"id":678,"name":"Rosalie Grigorini","service":"Nurse Practicioner","location":"3rd Floor","rating":2,"profileImage":"http://dummyimage.com/188x100.png/ff4444/ffffff","phone":"817-450-9246"},
{"id":679,"name":"Bobbette Kinchington","service":"Business Systems Development Analyst","location":"18th Floor","rating":4,"profileImage":"http://dummyimage.com/185x100.png/ff4444/ffffff","phone":"387-349-2531"},
{"id":680,"name":"Olympie Greeves","service":"Occupational Therapist","location":"Suite 27","rating":3,"profileImage":"http://dummyimage.com/133x100.png/5fa2dd/ffffff","phone":"674-457-3348"},
{"id":681,"name":"Krystle Polk","service":"Project Manager","location":"Suite 70","rating":4,"profileImage":"http://dummyimage.com/104x100.png/dddddd/000000","phone":"386-932-2897"},
{"id":682,"name":"Miof mela Kelsell","service":"Project Manager","location":"Room 716","rating":4,"profileImage":"http://dummyimage.com/198x100.png/5fa2dd/ffffff","phone":"354-806-4141"},
{"id":683,"name":"Augie Rawne","service":"Human Resources Assistant I","location":"Suite 67","rating":1,"profileImage":"http://dummyimage.com/103x100.png/dddddd/000000","phone":"828-158-0564"},
{"id":684,"name":"Ailey Alster","service":"Help Desk Operator","location":"Room 681","rating":2,"profileImage":"http://dummyimage.com/147x100.png/ff4444/ffffff","phone":"511-251-2984"},
{"id":685,"name":"Amie Learman","service":"Assistant Professor","location":"10th Floor","rating":5,"profileImage":"http://dummyimage.com/214x100.png/cc0000/ffffff","phone":"600-866-4190"},
{"id":686,"name":"Manny Nacey","service":"Junior Executive","location":"16th Floor","rating":2,"profileImage":"http://dummyimage.com/205x100.png/cc0000/ffffff","phone":"939-781-4822"},
{"id":687,"name":"Amata McCullogh","service":"Compensation Analyst","location":"Room 1236","rating":1,"profileImage":"http://dummyimage.com/201x100.png/5fa2dd/ffffff","phone":"577-617-0661"},
{"id":688,"name":"Sherman MacFadzean","service":"Analyst Programmer","location":"Apt 749","rating":5,"profileImage":"http://dummyimage.com/157x100.png/cc0000/ffffff","phone":"379-633-8135"},
{"id":689,"name":"Phillip FitzGilbert","service":"Mechanical Systems Engineer","location":"Suite 2","rating":4,"profileImage":"http://dummyimage.com/143x100.png/dddddd/000000","phone":"544-422-9979"},
{"id":690,"name":"Kaspar Hearnaman","service":"Office Assistant IV","location":"PO Box 65620","rating":4,"profileImage":"http://dummyimage.com/149x100.png/cc0000/ffffff","phone":"140-753-1848"},
{"id":691,"name":"Leonard Brunger","service":"Web Designer I","location":"Suite 23","rating":5,"profileImage":"http://dummyimage.com/249x100.png/cc0000/ffffff","phone":"697-571-0844"},
{"id":692,"name":"Myrah Yanne","service":"Senior Quality Engineer","location":"Apt 1726","rating":5,"profileImage":"http://dummyimage.com/246x100.png/ff4444/ffffff","phone":"248-823-7113"},
{"id":693,"name":"Ruddie Coil","service":"Budget/Accounting Analyst III","location":"4th Floor","rating":1,"profileImage":"http://dummyimage.com/234x100.png/ff4444/ffffff","phone":"640-379-1927"},
{"id":694,"name":"Charlotte Hatherley","service":"Pharmacist","location":"Suite 51","rating":3,"profileImage":"http://dummyimage.com/146x100.png/5fa2dd/ffffff","phone":"974-442-7402"},
{"id":695,"name":"Deloris Stebbings","service":"Occupational Therapist","location":"PO Box 89522","rating":3,"profileImage":"http://dummyimage.com/151x100.png/dddddd/000000","phone":"489-526-0568"},
{"id":696,"name":"Nicola Somerton","service":"Statistician III","location":"18th Floor","rating":2,"profileImage":"http://dummyimage.com/227x100.png/dddddd/000000","phone":"767-170-9240"},
{"id":697,"name":"Helaine Sowersby","service":"Analyst Programmer","location":"Suite 3","rating":3,"profileImage":"http://dummyimage.com/141x100.png/ff4444/ffffff","phone":"634-204-2630"},
{"id":698,"name":"Laurianne Orrock","service":"Associate Professor","location":"Room 905","rating":4,"profileImage":"http://dummyimage.com/248x100.png/cc0000/ffffff","phone":"860-174-2481"},
{"id":699,"name":"Elspeth Ranaghan","service":"Account Executive","location":"PO Box 11266","rating":1,"profileImage":"http://dummyimage.com/155x100.png/5fa2dd/ffffff","phone":"501-361-7506"},
{"id":700,"name":"Myra Damrell","service":"Assistant Professor","location":"PO Box 75090","rating":4,"profileImage":"http://dummyimage.com/194x100.png/5fa2dd/ffffff","phone":"834-919-0464"},
{"id":701,"name":"Michale MacCurlye","service":"Chief Design Engineer","location":"Apt 8","rating":2,"profileImage":"http://dummyimage.com/211x100.png/cc0000/ffffff","phone":"237-685-8931"},
{"id":702,"name":"Joann Allot","service":"Food Chemist","location":"10th Floor","rating":3,"profileImage":"http://dummyimage.com/212x100.png/dddddd/000000","phone":"714-548-3982"},
{"id":703,"name":"Rheba Cholwell","service":"Civil Engineer","location":"Suite 100","rating":2,"profileImage":"http://dummyimage.com/203x100.png/5fa2dd/ffffff","phone":"471-677-4400"},
{"id":704,"name":"Ivette Morrow","service":"Cost Accountant","location":"Suite 54","rating":2,"profileImage":"http://dummyimage.com/212x100.png/5fa2dd/ffffff","phone":"724-347-7818"},
{"id":705,"name":"Kiah MacVicar","service":"Nurse Practicioner","location":"Room 340","rating":5,"profileImage":"http://dummyimage.com/125x100.png/cc0000/ffffff","phone":"170-864-5005"},
{"id":706,"name":"Woody Rajchert","service":"Dental Hygienist","location":"Apt 558","rating":1,"profileImage":"http://dummyimage.com/152x100.png/5fa2dd/ffffff","phone":"325-335-1644"},
{"id":707,"name":"Ralph Hinz","service":"Account Executive","location":"Suite 21","rating":5,"profileImage":"http://dummyimage.com/101x100.png/dddddd/000000","phone":"791-440-0510"},
{"id":708,"name":"Bogey Redsell","service":"Information Systems Manager","location":"1st Floor","rating":1,"profileImage":"http://dummyimage.com/187x100.png/dddddd/000000","phone":"595-604-0525"},
{"id":709,"name":"Amble Flarity","service":"Structural Engineer","location":"PO Box 12284","rating":3,"profileImage":"http://dummyimage.com/187x100.png/5fa2dd/ffffff","phone":"536-748-4943"},
{"id":710,"name":"Gal Tapton","service":"Assistant Professor","location":"Room 1874","rating":1,"profileImage":"http://dummyimage.com/207x100.png/cc0000/ffffff","phone":"160-257-3896"},
{"id":711,"name":"Arly Demeza","service":"Associate Professor","location":"20th Floor","rating":2,"profileImage":"http://dummyimage.com/165x100.png/5fa2dd/ffffff","phone":"632-626-1652"},
{"id":712,"name":"Francesco O'Grada","service":"Occupational Therapist","location":"2nd Floor","rating":1,"profileImage":"http://dummyimage.com/223x100.png/ff4444/ffffff","phone":"337-805-3221"},
{"id":713,"name":"Jewelle Stell","service":"Librarian","location":"PO Box 30469","rating":1,"profileImage":"http://dummyimage.com/240x100.png/ff4444/ffffff","phone":"543-590-4005"},
{"id":714,"name":"Harmony Tonnesen","service":"Technical Writer","location":"Room 485","rating":5,"profileImage":"http://dummyimage.com/224x100.png/cc0000/ffffff","phone":"991-133-6944"},
{"id":715,"name":"Anitra Halsted","service":"Geologist IV","location":"Apt 1826","rating":1,"profileImage":"http://dummyimage.com/105x100.png/ff4444/ffffff","phone":"560-378-8550"},
{"id":716,"name":"Eveleen Fowls","service":"Staff Accountant IV","location":"10th Floor","rating":1,"profileImage":"http://dummyimage.com/155x100.png/5fa2dd/ffffff","phone":"412-897-6301"},
{"id":717,"name":"Amara Putson","service":"Statistician IV","location":"PO Box 68055","rating":4,"profileImage":"http://dummyimage.com/207x100.png/cc0000/ffffff","phone":"115-380-4747"},
{"id":718,"name":"Brant Menezes","service":"Budget/Accounting Analyst I","location":"PO Box 68068","rating":2,"profileImage":"http://dummyimage.com/248x100.png/5fa2dd/ffffff","phone":"359-774-4675"},
{"id":719,"name":"Shirl Anglim","service":"Desktop Support Technician","location":"1st Floor","rating":1,"profileImage":"http://dummyimage.com/171x100.png/5fa2dd/ffffff","phone":"408-926-0253"},
{"id":720,"name":"Godfry Brantl","service":"Assistant Manager","location":"14th Floor","rating":3,"profileImage":"http://dummyimage.com/227x100.png/ff4444/ffffff","phone":"617-956-8775"},
{"id":721,"name":"Rickie Girth","service":"Compensation Analyst","location":"17th Floor","rating":3,"profileImage":"http://dummyimage.com/121x100.png/dddddd/000000","phone":"933-281-2346"},
{"id":722,"name":"Graig De Banke","service":"Help Desk Operator","location":"PO Box 20891","rating":3,"profileImage":"http://dummyimage.com/212x100.png/5fa2dd/ffffff","phone":"740-181-9407"},
{"id":723,"name":"Urson Burgne","service":"Project Manager","location":"Suite 38","rating":4,"profileImage":"http://dummyimage.com/150x100.png/ff4444/ffffff","phone":"126-467-1647"},
{"id":724,"name":"Bondie Tolwood","service":"Civil Engineer","location":"Suite 41","rating":3,"profileImage":"http://dummyimage.com/107x100.png/ff4444/ffffff","phone":"439-721-2473"},
{"id":725,"name":"Mirabella Leverette","service":"Speech Pathologist","location":"PO Box 11814","rating":1,"profileImage":"http://dummyimage.com/235x100.png/dddddd/000000","phone":"505-163-1488"},
{"id":726,"name":"Elenore Di Domenico","service":"Help Desk Technician","location":"PO Box 21088","rating":3,"profileImage":"http://dummyimage.com/199x100.png/ff4444/ffffff","phone":"103-200-3399"},
{"id":727,"name":"Minerva Shorter","service":"Senior Editor","location":"19th Floor","rating":5,"profileImage":"http://dummyimage.com/246x100.png/ff4444/ffffff","phone":"474-575-4875"},
{"id":728,"name":"Dorella Barok","service":"Research Associate","location":"Room 358","rating":4,"profileImage":"http://dummyimage.com/156x100.png/5fa2dd/ffffff","phone":"408-805-3211"},
{"id":729,"name":"Issi Treharne","service":"GIS Technical Architect","location":"4th Floor","rating":5,"profileImage":"http://dummyimage.com/108x100.png/5fa2dd/ffffff","phone":"158-740-0370"},
{"id":730,"name":"Shaine Carrier","service":"Senior Sales Associate","location":"Room 1566","rating":3,"profileImage":"http://dummyimage.com/233x100.png/cc0000/ffffff","phone":"244-723-8112"},
{"id":731,"name":"Joleen Ashwood","service":"Staff Accountant II","location":"Suite 64","rating":3,"profileImage":"http://dummyimage.com/225x100.png/ff4444/ffffff","phone":"482-770-0872"},
{"id":732,"name":"Armando Casswell","service":"Food Chemist","location":"3rd Floor","rating":3,"profileImage":"http://dummyimage.com/104x100.png/cc0000/ffffff","phone":"523-887-7402"},
{"id":733,"name":"Antonetta Krammer","service":"Assistant Manager","location":"PO Box 77390","rating":2,"profileImage":"http://dummyimage.com/160x100.png/5fa2dd/ffffff","phone":"947-784-6149"},
{"id":734,"name":"Chelsea Genicke","service":"Project Manager","location":"Suite 42","rating":4,"profileImage":"http://dummyimage.com/174x100.png/cc0000/ffffff","phone":"598-265-5009"},
{"id":735,"name":"Elizabet Pedrick","service":"VP Marketing","location":"PO Box 16628","rating":3,"profileImage":"http://dummyimage.com/239x100.png/ff4444/ffffff","phone":"589-167-3158"},
{"id":736,"name":"Merlina Abramovitch","service":"Help Desk Technician","location":"PO Box 44459","rating":4,"profileImage":"http://dummyimage.com/225x100.png/cc0000/ffffff","phone":"158-786-2743"},
{"id":737,"name":"Vivianne Ingerson","service":"VP Quality Control","location":"Apt 137","rating":5,"profileImage":"http://dummyimage.com/158x100.png/dddddd/000000","phone":"936-750-4007"},
{"id":738,"name":"Aldridge Bohden","service":"Accounting Assistant III","location":"11th Floor","rating":1,"profileImage":"http://dummyimage.com/132x100.png/dddddd/000000","phone":"182-856-2350"},
{"id":739,"name":"Windham Kaubisch","service":"Junior Executive","location":"Room 239","rating":4,"profileImage":"http://dummyimage.com/250x100.png/5fa2dd/ffffff","phone":"745-126-7043"},
{"id":740,"name":"Gordy Musker","service":"Software Consultant","location":"PO Box 42302","rating":1,"profileImage":"http://dummyimage.com/226x100.png/5fa2dd/ffffff","phone":"925-145-2137"},
{"id":741,"name":"Emera Vasishchev","service":"Software Consultant","location":"PO Box 88796","rating":4,"profileImage":"http://dummyimage.com/182x100.png/cc0000/ffffff","phone":"955-612-7366"},
{"id":742,"name":"Wiatt Bille","service":"Chief Design Engineer","location":"1st Floor","rating":2,"profileImage":"http://dummyimage.com/191x100.png/5fa2dd/ffffff","phone":"641-966-0857"},
{"id":743,"name":"Isidor Edlington","service":"Assistant Media Planner","location":"Apt 354","rating":2,"profileImage":"http://dummyimage.com/234x100.png/ff4444/ffffff","phone":"436-255-8769"},
{"id":744,"name":"Norbert Tams","service":"Speech Pathologist","location":"4th Floor","rating":2,"profileImage":"http://dummyimage.com/217x100.png/dddddd/000000","phone":"279-338-3472"},
{"id":745,"name":"Lauritz Bernadot","service":"Financial Advisor","location":"Room 508","rating":1,"profileImage":"http://dummyimage.com/107x100.png/cc0000/ffffff","phone":"171-449-1525"},
{"id":746,"name":"Chrystal Thom","service":"Chemical Engineer","location":"PO Box 34443","rating":2,"profileImage":"http://dummyimage.com/105x100.png/5fa2dd/ffffff","phone":"573-668-6692"},
{"id":747,"name":"Paulette Bucke","service":"Mechanical Systems Engineer","location":"Apt 1147","rating":5,"profileImage":"http://dummyimage.com/207x100.png/5fa2dd/ffffff","phone":"696-906-5890"},
{"id":748,"name":"Marianne Bierton","service":"Product Engineer","location":"Suite 2","rating":3,"profileImage":"http://dummyimage.com/215x100.png/cc0000/ffffff","phone":"718-180-5183"},
{"id":749,"name":"Clair Bantock","service":"Account Representative I","location":"20th Floor","rating":2,"profileImage":"http://dummyimage.com/206x100.png/dddddd/000000","phone":"912-463-5367"},
{"id":750,"name":"Aguste Pinwell","service":"Social Worker","location":"Suite 36","rating":2,"profileImage":"http://dummyimage.com/199x100.png/ff4444/ffffff","phone":"698-675-4701"},
{"id":751,"name":"Alida Climer","service":"Paralegal","location":"Room 1802","rating":3,"profileImage":"http://dummyimage.com/182x100.png/5fa2dd/ffffff","phone":"237-119-2463"},
{"id":752,"name":"Kin Dionisio","service":"Nurse Practicioner","location":"Apt 1505","rating":2,"profileImage":"http://dummyimage.com/157x100.png/5fa2dd/ffffff","phone":"780-235-1997"},
{"id":753,"name":"Peirce Mussared","service":"Project Manager","location":"Apt 123","rating":4,"profileImage":"http://dummyimage.com/229x100.png/dddddd/000000","phone":"847-206-7295"},
{"id":754,"name":"Joanne Killford","service":"Senior Cost Accountant","location":"8th Floor","rating":4,"profileImage":"http://dummyimage.com/222x100.png/5fa2dd/ffffff","phone":"278-787-7640"},
{"id":755,"name":"Ashely Rope","service":"Systems Administrator III","location":"Room 131","rating":2,"profileImage":"http://dummyimage.com/166x100.png/ff4444/ffffff","phone":"631-855-2956"},
{"id":756,"name":"Vladamir Gutridge","service":"Legal Assistant","location":"1st Floor","rating":5,"profileImage":"http://dummyimage.com/142x100.png/ff4444/ffffff","phone":"345-588-5222"},
{"id":757,"name":"Cob Khan","service":"Account Coordinator","location":"Apt 1498","rating":4,"profileImage":"http://dummyimage.com/237x100.png/cc0000/ffffff","phone":"106-331-1679"},
{"id":758,"name":"Jermaine Bewsy","service":"Food Chemist","location":"Apt 703","rating":3,"profileImage":"http://dummyimage.com/249x100.png/cc0000/ffffff","phone":"891-741-5765"},
{"id":759,"name":"Porty Whipp","service":"Assistant Professor","location":"Room 1725","rating":4,"profileImage":"http://dummyimage.com/154x100.png/ff4444/ffffff","phone":"467-676-7564"},
{"id":760,"name":"Rosene Grigoletti","service":"Paralegal","location":"6th Floor","rating":2,"profileImage":"http://dummyimage.com/210x100.png/dddddd/000000","phone":"390-760-5187"},
{"id":761,"name":"Teodoor Felkin","service":"Web Designer IV","location":"Apt 1022","rating":1,"profileImage":"http://dummyimage.com/118x100.png/5fa2dd/ffffff","phone":"682-509-9974"},
{"id":762,"name":"Jen Saffen","service":"Civil Engineer","location":"Room 896","rating":2,"profileImage":"http://dummyimage.com/144x100.png/5fa2dd/ffffff","phone":"581-950-4136"},
{"id":763,"name":"Micky Sweeny","service":"Research Associate","location":"Suite 24","rating":1,"profileImage":"http://dummyimage.com/220x100.png/ff4444/ffffff","phone":"470-158-5815"},
{"id":764,"name":"Martina Gowlett","service":"Media Manager I","location":"Room 794","rating":3,"profileImage":"http://dummyimage.com/107x100.png/dddddd/000000","phone":"383-852-2368"},
{"id":765,"name":"Elvina Vashchenko","service":"Structural Engineer","location":"16th Floor","rating":4,"profileImage":"http://dummyimage.com/239x100.png/dddddd/000000","phone":"412-682-1834"},
{"id":766,"name":"Jeremy Eck","service":"VP Marketing","location":"PO Box 43125","rating":2,"profileImage":"http://dummyimage.com/205x100.png/ff4444/ffffff","phone":"866-112-5723"},
{"id":767,"name":"Matthieu Avramovic","service":"Design Engineer","location":"Suite 90","rating":3,"profileImage":"http://dummyimage.com/180x100.png/5fa2dd/ffffff","phone":"694-693-1708"},
{"id":768,"name":"Ericka Byne","service":"Librarian","location":"PO Box 30336","rating":1,"profileImage":"http://dummyimage.com/176x100.png/ff4444/ffffff","phone":"480-257-0678"},
{"id":769,"name":"Marilin Goble","service":"Senior Editor","location":"Apt 523","rating":2,"profileImage":"http://dummyimage.com/157x100.png/dddddd/000000","phone":"534-690-6293"},
{"id":770,"name":"Charlotta Zum Felde","service":"Structural Analysis Engineer","location":"Suite 20","rating":1,"profileImage":"http://dummyimage.com/117x100.png/dddddd/000000","phone":"518-454-8403"},
{"id":771,"name":"Yancy Garci","service":"Operator","location":"4th Floor","rating":3,"profileImage":"http://dummyimage.com/249x100.png/5fa2dd/ffffff","phone":"705-460-5263"},
{"id":772,"name":"Marianne Lunney","service":"Web Designer III","location":"20th Floor","rating":2,"profileImage":"http://dummyimage.com/149x100.png/5fa2dd/ffffff","phone":"639-852-5941"},
{"id":773,"name":"Sashenka Demke","service":"Media Manager IV","location":"7th Floor","rating":1,"profileImage":"http://dummyimage.com/217x100.png/5fa2dd/ffffff","phone":"601-590-6283"},
{"id":774,"name":"Hieronymus Girod","service":"Desktop Support Technician","location":"PO Box 27263","rating":2,"profileImage":"http://dummyimage.com/168x100.png/dddddd/000000","phone":"315-967-6788"},
{"id":775,"name":"Dotty Wilcinskis","service":"Sales Associate","location":"Room 675","rating":1,"profileImage":"http://dummyimage.com/147x100.png/5fa2dd/ffffff","phone":"722-620-8274"},
{"id":776,"name":"Sylas Bodham","service":"Social Worker","location":"2nd Floor","rating":1,"profileImage":"http://dummyimage.com/158x100.png/5fa2dd/ffffff","phone":"280-149-0202"},
{"id":777,"name":"Chase Cammock","service":"Editor","location":"Room 949","rating":1,"profileImage":"http://dummyimage.com/157x100.png/5fa2dd/ffffff","phone":"965-425-0912"},
{"id":778,"name":"Susan Aslett","service":"Account Coordinator","location":"Suite 82","rating":5,"profileImage":"http://dummyimage.com/164x100.png/dddddd/000000","phone":"456-556-5071"},
{"id":779,"name":"Baron Jarrard","service":"Assistant Professor","location":"PO Box 24974","rating":2,"profileImage":"http://dummyimage.com/245x100.png/cc0000/ffffff","phone":"814-268-6589"},
{"id":780,"name":"Leanor Gentil","service":"Administrative Assistant IV","location":"Room 654","rating":4,"profileImage":"http://dummyimage.com/229x100.png/ff4444/ffffff","phone":"824-928-9521"},
{"id":781,"name":"Justina Wimmer","service":"Engineer III","location":"PO Box 93631","rating":1,"profileImage":"http://dummyimage.com/177x100.png/5fa2dd/ffffff","phone":"804-456-0351"},
{"id":782,"name":"Parsifal Salamon","service":"Marketing Assistant","location":"18th Floor","rating":2,"profileImage":"http://dummyimage.com/230x100.png/5fa2dd/ffffff","phone":"630-707-5712"},
{"id":783,"name":"Ariana Plues","service":"Food Chemist","location":"Suite 48","rating":1,"profileImage":"http://dummyimage.com/128x100.png/dddddd/000000","phone":"282-594-8697"},
{"id":784,"name":"Connie Lufkin","service":"Assistant Professor","location":"PO Box 4401","rating":5,"profileImage":"http://dummyimage.com/201x100.png/5fa2dd/ffffff","phone":"928-766-2827"},
{"id":785,"name":"Sheridan Derrington","service":"VP Accounting","location":"Apt 1334","rating":1,"profileImage":"http://dummyimage.com/235x100.png/cc0000/ffffff","phone":"529-340-0562"},
{"id":786,"name":"Ulrich Boij","service":"Operator","location":"Apt 23","rating":3,"profileImage":"http://dummyimage.com/103x100.png/cc0000/ffffff","phone":"885-255-7556"},
{"id":787,"name":"Felicity Coverly","service":"Help Desk Technician","location":"Suite 18","rating":3,"profileImage":"http://dummyimage.com/130x100.png/5fa2dd/ffffff","phone":"915-446-7865"},
{"id":788,"name":"Farand Sheirlaw","service":"Chemical Engineer","location":"Room 721","rating":3,"profileImage":"http://dummyimage.com/174x100.png/dddddd/000000","phone":"248-770-4302"},
{"id":789,"name":"Ignatius Coners","service":"GIS Technical Architect","location":"PO Box 45747","rating":5,"profileImage":"http://dummyimage.com/134x100.png/ff4444/ffffff","phone":"684-914-4170"},
{"id":790,"name":"Lynnet Dimitriades","service":"Editor","location":"PO Box 91248","rating":1,"profileImage":"http://dummyimage.com/241x100.png/dddddd/000000","phone":"507-488-5396"},
{"id":791,"name":"Davon Cardow","service":"Financial Advisor","location":"Room 1305","rating":3,"profileImage":"http://dummyimage.com/247x100.png/cc0000/ffffff","phone":"305-350-1350"},
{"id":792,"name":"Erny MacCurley","service":"Structural Engineer","location":"Suite 16","rating":1,"profileImage":"http://dummyimage.com/117x100.png/cc0000/ffffff","phone":"907-304-2865"},
{"id":793,"name":"Gayel Hayto","service":"Pharmacist","location":"Apt 277","rating":2,"profileImage":"http://dummyimage.com/236x100.png/cc0000/ffffff","phone":"671-192-8384"},
{"id":794,"name":"Emilio Hanscom","service":"Structural Analysis Engineer","location":"Suite 44","rating":3,"profileImage":"http://dummyimage.com/115x100.png/cc0000/ffffff","phone":"692-910-0123"},
{"id":795,"name":"Sebastien Urwen","service":"Programmer Analyst I","location":"19th Floor","rating":1,"profileImage":"http://dummyimage.com/109x100.png/cc0000/ffffff","phone":"394-896-5256"},
{"id":796,"name":"Margi Levington","service":"Computer Systems Analyst III","location":"Room 1074","rating":2,"profileImage":"http://dummyimage.com/124x100.png/dddddd/000000","phone":"699-515-3582"},
{"id":797,"name":"Gare Kos","service":"Paralegal","location":"16th Floor","rating":2,"profileImage":"http://dummyimage.com/219x100.png/5fa2dd/ffffff","phone":"150-271-4452"},
{"id":798,"name":"Slade Gaskin","service":"Engineer I","location":"Apt 1282","rating":1,"profileImage":"http://dummyimage.com/218x100.png/5fa2dd/ffffff","phone":"369-987-5224"},
{"id":799,"name":"Lebbie Launchbury","service":"Account Representative III","location":"Suite 94","rating":5,"profileImage":"http://dummyimage.com/151x100.png/dddddd/000000","phone":"668-555-8599"},
{"id":800,"name":"Sly Weed","service":"Sales Associate","location":"10th Floor","rating":2,"profileImage":"http://dummyimage.com/125x100.png/dddddd/000000","phone":"126-442-6748"},
{"id":801,"name":"Doralynn Bolter","service":"Administrative Assistant II","location":"PO Box 75734","rating":4,"profileImage":"http://dummyimage.com/132x100.png/5fa2dd/ffffff","phone":"942-647-5196"},
{"id":802,"name":"Natka Dallman","service":"Assistant Manager","location":"Suite 68","rating":4,"profileImage":"http://dummyimage.com/152x100.png/5fa2dd/ffffff","phone":"468-339-2554"},
{"id":803,"name":"Grissel Tarquinio","service":"Structural Engineer","location":"PO Box 27692","rating":3,"profileImage":"http://dummyimage.com/136x100.png/ff4444/ffffff","phone":"487-373-0119"},
{"id":804,"name":"Godfry Leggen","service":"Research Nurse","location":"PO Box 60203","rating":5,"profileImage":"http://dummyimage.com/177x100.png/ff4444/ffffff","phone":"703-215-8280"},
{"id":805,"name":"Amargo Eyden","service":"Financial Advisor","location":"Room 1059","rating":5,"profileImage":"http://dummyimage.com/156x100.png/dddddd/000000","phone":"102-555-2147"},
{"id":806,"name":"Angy Griffin","service":"Software Test Engineer IV","location":"Suite 19","rating":2,"profileImage":"http://dummyimage.com/131x100.png/5fa2dd/ffffff","phone":"432-541-1975"},
{"id":807,"name":"Rodd McLernon","service":"Chemical Engineer","location":"18th Floor","rating":5,"profileImage":"http://dummyimage.com/204x100.png/cc0000/ffffff","phone":"520-316-9368"},
{"id":808,"name":"Jabez Plummer","service":"Internal Auditor","location":"Room 1303","rating":5,"profileImage":"http://dummyimage.com/233x100.png/cc0000/ffffff","phone":"111-658-7466"},
{"id":809,"name":"Rosemary Bellis","service":"Accountant II","location":"Room 1464","rating":4,"profileImage":"http://dummyimage.com/152x100.png/dddddd/000000","phone":"221-458-3702"},
{"id":810,"name":"Essy Hankinson","service":"Systems Administrator I","location":"Suite 31","rating":5,"profileImage":"http://dummyimage.com/119x100.png/5fa2dd/ffffff","phone":"485-308-8383"},
{"id":811,"name":"Nikki Mc Kellen","service":"Software Test Engineer IV","location":"Room 1901","rating":3,"profileImage":"http://dummyimage.com/183x100.png/dddddd/000000","phone":"275-800-7943"},
{"id":812,"name":"Hildagard Lucken","service":"Senior Quality Engineer","location":"Apt 1944","rating":2,"profileImage":"http://dummyimage.com/222x100.png/dddddd/000000","phone":"651-852-7811"},
{"id":813,"name":"Antone Kaufman","service":"Recruiting Manager","location":"6th Floor","rating":3,"profileImage":"http://dummyimage.com/161x100.png/5fa2dd/ffffff","phone":"537-221-5255"},
{"id":814,"name":"Elias Crinage","service":"Administrative Officer","location":"Room 1777","rating":5,"profileImage":"http://dummyimage.com/178x100.png/5fa2dd/ffffff","phone":"884-327-5067"},
{"id":815,"name":"Berti Eck","service":"Environmental Specialist","location":"Apt 290","rating":2,"profileImage":"http://dummyimage.com/218x100.png/dddddd/000000","phone":"379-925-5751"},
{"id":816,"name":"Glen Belchamp","service":"Structural Engineer","location":"Apt 1163","rating":1,"profileImage":"http://dummyimage.com/222x100.png/dddddd/000000","phone":"191-244-9014"},
{"id":817,"name":"Alphonso Harford","service":"Database Administrator I","location":"PO Box 6153","rating":5,"profileImage":"http://dummyimage.com/138x100.png/cc0000/ffffff","phone":"649-966-6484"},
{"id":818,"name":"Piggy Spellworth","service":"Administrative Officer","location":"Suite 19","rating":3,"profileImage":"http://dummyimage.com/249x100.png/ff4444/ffffff","phone":"100-403-6716"},
{"id":819,"name":"Diena Paolo","service":"GIS Technical Architect","location":"11th Floor","rating":4,"profileImage":"http://dummyimage.com/238x100.png/5fa2dd/ffffff","phone":"519-136-7683"},
{"id":820,"name":"Anetta Pestricke","service":"Paralegal","location":"Room 1869","rating":1,"profileImage":"http://dummyimage.com/196x100.png/cc0000/ffffff","phone":"366-862-2931"},
{"id":821,"name":"Kari Ealles","service":"Geologist I","location":"Room 363","rating":5,"profileImage":"http://dummyimage.com/226x100.png/5fa2dd/ffffff","phone":"233-682-0551"},
{"id":822,"name":"Perla Rraundl","service":"Actuary","location":"PO Box 82380","rating":2,"profileImage":"http://dummyimage.com/183x100.png/5fa2dd/ffffff","phone":"966-233-2187"},
{"id":823,"name":"Sherrie Santacrole","service":"Database Administrator III","location":"Room 1521","rating":5,"profileImage":"http://dummyimage.com/162x100.png/cc0000/ffffff","phone":"376-627-0589"},
{"id":824,"name":"Harlen Avey","service":"Chemical Engineer","location":"Suite 19","rating":4,"profileImage":"http://dummyimage.com/219x100.png/ff4444/ffffff","phone":"959-917-9865"},
{"id":825,"name":"Carleton Vezey","service":"Health Coach IV","location":"Apt 609","rating":1,"profileImage":"http://dummyimage.com/247x100.png/ff4444/ffffff","phone":"151-305-7960"},
{"id":826,"name":"Moll Pockey","service":"Environmental Specialist","location":"Suite 32","rating":1,"profileImage":"http://dummyimage.com/120x100.png/dddddd/000000","phone":"148-988-1452"},
{"id":827,"name":"Ivory Bardwell","service":"Systems Administrator III","location":"Apt 1310","rating":3,"profileImage":"http://dummyimage.com/225x100.png/cc0000/ffffff","phone":"722-741-2915"},
{"id":828,"name":"Alonzo Glandfield","service":"Recruiting Manager","location":"Room 177","rating":1,"profileImage":"http://dummyimage.com/203x100.png/5fa2dd/ffffff","phone":"333-224-3188"},
{"id":829,"name":"Luis Schriren","service":"Research Assistant II","location":"Room 310","rating":1,"profileImage":"http://dummyimage.com/109x100.png/dddddd/000000","phone":"103-784-9613"},
{"id":830,"name":"Daisey Januszewicz","service":"Programmer Analyst III","location":"17th Floor","rating":4,"profileImage":"http://dummyimage.com/203x100.png/5fa2dd/ffffff","phone":"444-242-2046"},
{"id":831,"name":"Adele Pridham","service":"Senior Financial Analyst","location":"PO Box 32544","rating":3,"profileImage":"http://dummyimage.com/200x100.png/ff4444/ffffff","phone":"162-926-0049"},
{"id":832,"name":"Gillan MacRannell","service":"Software Engineer IV","location":"Room 936","rating":3,"profileImage":"http://dummyimage.com/183x100.png/cc0000/ffffff","phone":"268-751-7245"},
{"id":833,"name":"Tansy Preddy","service":"VP Sales","location":"Apt 898","rating":5,"profileImage":"http://dummyimage.com/107x100.png/dddddd/000000","phone":"861-539-8046"},
{"id":834,"name":"Paxton Shann","service":"Quality Control Specialist","location":"Suite 48","rating":1,"profileImage":"http://dummyimage.com/249x100.png/ff4444/ffffff","phone":"787-956-7802"},
{"id":835,"name":"Marquita Lory","service":"Analyst Programmer","location":"PO Box 68293","rating":2,"profileImage":"http://dummyimage.com/149x100.png/dddddd/000000","phone":"395-352-5232"},
{"id":836,"name":"Antoni Hummerston","service":"Cost Accountant","location":"9th Floor","rating":5,"profileImage":"http://dummyimage.com/242x100.png/cc0000/ffffff","phone":"208-818-5610"},
{"id":837,"name":"Sula De Bischop","service":"Structural Engineer","location":"PO Box 52624","rating":2,"profileImage":"http://dummyimage.com/142x100.png/ff4444/ffffff","phone":"351-226-4966"},
{"id":838,"name":"Quint D'Abbot-Doyle","service":"Actuary","location":"Suite 61","rating":3,"profileImage":"http://dummyimage.com/169x100.png/ff4444/ffffff","phone":"594-639-6720"},
{"id":839,"name":"Brynna Oliva","service":"Software Consultant","location":"Room 98","rating":3,"profileImage":"http://dummyimage.com/232x100.png/5fa2dd/ffffff","phone":"404-192-1348"},
{"id":840,"name":"Bertrando Cudmore","service":"Food Chemist","location":"PO Box 80797","rating":3,"profileImage":"http://dummyimage.com/230x100.png/cc0000/ffffff","phone":"430-650-5336"},
{"id":841,"name":"Antonietta Boatswain","service":"Chemical Engineer","location":"7th Floor","rating":4,"profileImage":"http://dummyimage.com/109x100.png/dddddd/000000","phone":"764-901-6008"},
{"id":842,"name":"Cal Porritt","service":"Analyst Programmer","location":"Room 1712","rating":2,"profileImage":"http://dummyimage.com/234x100.png/ff4444/ffffff","phone":"332-296-7226"},
{"id":843,"name":"Philippe Selwyne","service":"Database Administrator III","location":"Suite 56","rating":3,"profileImage":"http://dummyimage.com/205x100.png/5fa2dd/ffffff","phone":"610-305-5615"},
{"id":844,"name":"Tandie Reynolds","service":"Help Desk Operator","location":"Room 209","rating":1,"profileImage":"http://dummyimage.com/139x100.png/dddddd/000000","phone":"236-623-8179"},
{"id":845,"name":"Sheilakathryn Necrews","service":"Nurse","location":"2nd Floor","rating":3,"profileImage":"http://dummyimage.com/178x100.png/ff4444/ffffff","phone":"765-847-4398"},
{"id":846,"name":"Taddeusz Watsam","service":"VP Marketing","location":"PO Box 46876","rating":5,"profileImage":"http://dummyimage.com/204x100.png/5fa2dd/ffffff","phone":"704-453-9173"},
{"id":847,"name":"Clementia Bunford","service":"Structural Engineer","location":"Room 285","rating":4,"profileImage":"http://dummyimage.com/198x100.png/5fa2dd/ffffff","phone":"470-934-9750"},
{"id":848,"name":"Jerad Kalisz","service":"Paralegal","location":"Suite 68","rating":2,"profileImage":"http://dummyimage.com/198x100.png/ff4444/ffffff","phone":"872-611-3781"},
{"id":849,"name":"Jewel Chasson","service":"Human Resources Manager","location":"PO Box 48001","rating":5,"profileImage":"http://dummyimage.com/190x100.png/ff4444/ffffff","phone":"763-800-8765"},
{"id":850,"name":"Ameline Macias","service":"Food Chemist","location":"Room 412","rating":2,"profileImage":"http://dummyimage.com/244x100.png/5fa2dd/ffffff","phone":"303-310-5862"},
{"id":851,"name":"Max DelaField","service":"Professor","location":"PO Box 29158","rating":3,"profileImage":"http://dummyimage.com/233x100.png/ff4444/ffffff","phone":"232-210-9073"},
{"id":852,"name":"Winni Chilvers","service":"Web Developer II","location":"PO Box 8069","rating":2,"profileImage":"http://dummyimage.com/157x100.png/ff4444/ffffff","phone":"478-541-4628"},
{"id":853,"name":"Yulma Thorogood","service":"Librarian","location":"Room 1873","rating":2,"profileImage":"http://dummyimage.com/178x100.png/5fa2dd/ffffff","phone":"143-552-4200"},
{"id":854,"name":"Free Tenbrug","service":"Cost Accountant","location":"Suite 67","rating":5,"profileImage":"http://dummyimage.com/193x100.png/cc0000/ffffff","phone":"861-821-8649"},
{"id":855,"name":"Darline Petrovic","service":"Assistant Media Planner","location":"Room 1836","rating":1,"profileImage":"http://dummyimage.com/135x100.png/ff4444/ffffff","phone":"125-244-5360"},
{"id":856,"name":"Clem Critzen","service":"Sales Representative","location":"4th Floor","rating":3,"profileImage":"http://dummyimage.com/177x100.png/5fa2dd/ffffff","phone":"217-423-9159"},
{"id":857,"name":"Cathyleen Pipe","service":"Desktop Support Technician","location":"Room 1061","rating":3,"profileImage":"http://dummyimage.com/237x100.png/ff4444/ffffff","phone":"748-494-6144"},
{"id":858,"name":"Caroljean Lambrechts","service":"Electrical Engineer","location":"PO Box 93461","rating":1,"profileImage":"http://dummyimage.com/217x100.png/5fa2dd/ffffff","phone":"596-911-8868"},
{"id":859,"name":"Hestia McHarry","service":"Database Administrator II","location":"Suite 80","rating":2,"profileImage":"http://dummyimage.com/231x100.png/5fa2dd/ffffff","phone":"868-656-2384"},
{"id":860,"name":"Antony Morling","service":"Information Systems Manager","location":"8th Floor","rating":4,"profileImage":"http://dummyimage.com/113x100.png/ff4444/ffffff","phone":"510-229-1900"},
{"id":861,"name":"Kingsley Benoey","service":"Staff Scientist","location":"11th Floor","rating":3,"profileImage":"http://dummyimage.com/240x100.png/cc0000/ffffff","phone":"850-277-6487"},
{"id":862,"name":"Don Eschelle","service":"Programmer III","location":"19th Floor","rating":3,"profileImage":"http://dummyimage.com/103x100.png/dddddd/000000","phone":"999-351-3128"},
{"id":863,"name":"Charo Dunne","service":"Computer Systems Analyst II","location":"Room 597","rating":3,"profileImage":"http://dummyimage.com/147x100.png/5fa2dd/ffffff","phone":"253-697-6101"},
{"id":864,"name":"Jules Forsdyke","service":"Account Executive","location":"1st Floor","rating":5,"profileImage":"http://dummyimage.com/100x100.png/5fa2dd/ffffff","phone":"436-349-6261"},
{"id":865,"name":"Caroline Suttling","service":"Electrical Engineer","location":"Apt 1535","rating":1,"profileImage":"http://dummyimage.com/250x100.png/ff4444/ffffff","phone":"193-189-9340"},
{"id":866,"name":"Christopher Hof","service":"VP Product Management","location":"Room 1681","rating":5,"profileImage":"http://dummyimage.com/217x100.png/cc0000/ffffff","phone":"594-551-1376"},
{"id":867,"name":"Stesha Bernhardsson","service":"Speech Pathologist","location":"Apt 140","rating":3,"profileImage":"http://dummyimage.com/128x100.png/cc0000/ffffff","phone":"879-783-6440"},
{"id":868,"name":"Dayle Stump","service":"Associate Professor","location":"PO Box 80681","rating":5,"profileImage":"http://dummyimage.com/111x100.png/5fa2dd/ffffff","phone":"702-239-0263"},
{"id":869,"name":"Aline Peare","service":"Design Engineer","location":"1st Floor","rating":2,"profileImage":"http://dummyimage.com/162x100.png/cc0000/ffffff","phone":"181-382-2487"},
{"id":870,"name":"Juliet Castello","service":"Cost Accountant","location":"17th Floor","rating":4,"profileImage":"http://dummyimage.com/193x100.png/5fa2dd/ffffff","phone":"774-426-1950"},
{"id":871,"name":"Riane Selby","service":"Account Representative I","location":"Apt 1261","rating":4,"profileImage":"http://dummyimage.com/178x100.png/cc0000/ffffff","phone":"656-803-0758"},
{"id":872,"name":"Arin Piggot","service":"Mechanical Systems Engineer","location":"PO Box 36669","rating":1,"profileImage":"http://dummyimage.com/127x100.png/ff4444/ffffff","phone":"713-423-6563"},
{"id":873,"name":"Garald Manicomb","service":"Quality Engineer","location":"18th Floor","rating":5,"profileImage":"http://dummyimage.com/114x100.png/cc0000/ffffff","phone":"853-619-6644"},
{"id":874,"name":"Agnes Murkin","service":"Structural Engineer","location":"PO Box 9138","rating":4,"profileImage":"http://dummyimage.com/231x100.png/5fa2dd/ffffff","phone":"202-953-3391"},
{"id":875,"name":"Bennie Brouwer","service":"Database Administrator II","location":"Room 456","rating":5,"profileImage":"http://dummyimage.com/248x100.png/5fa2dd/ffffff","phone":"378-629-5444"},
{"id":876,"name":"Roma Khomich","service":"Actuary","location":"PO Box 95481","rating":3,"profileImage":"http://dummyimage.com/242x100.png/cc0000/ffffff","phone":"736-632-7462"},
{"id":877,"name":"Blair Northage","service":"Actuary","location":"PO Box 31633","rating":4,"profileImage":"http://dummyimage.com/169x100.png/dddddd/000000","phone":"496-312-5097"},
{"id":878,"name":"Berrie Blackater","service":"Chief Design Engineer","location":"Apt 1047","rating":3,"profileImage":"http://dummyimage.com/213x100.png/dddddd/000000","phone":"420-238-6735"},
{"id":879,"name":"Toby Clulow","service":"Human Resources Assistant III","location":"Suite 29","rating":2,"profileImage":"http://dummyimage.com/167x100.png/cc0000/ffffff","phone":"170-315-9108"},
{"id":880,"name":"Kris Maffione","service":"Executive Secretary","location":"17th Floor","rating":5,"profileImage":"http://dummyimage.com/188x100.png/dddddd/000000","phone":"896-779-7193"},
{"id":881,"name":"Bradford Crowd","service":"Automation Specialist II","location":"Room 1438","rating":5,"profileImage":"http://dummyimage.com/169x100.png/ff4444/ffffff","phone":"989-928-1189"},
{"id":882,"name":"Nanice Wooton","service":"Accounting Assistant II","location":"PO Box 21619","rating":4,"profileImage":"http://dummyimage.com/229x100.png/ff4444/ffffff","phone":"975-693-3593"},
{"id":883,"name":"Davide Sheara","service":"Senior Developer","location":"Suite 7","rating":5,"profileImage":"http://dummyimage.com/241x100.png/cc0000/ffffff","phone":"319-735-5295"},
{"id":884,"name":"Monro Sancto","service":"Financial Analyst","location":"Suite 42","rating":2,"profileImage":"http://dummyimage.com/204x100.png/ff4444/ffffff","phone":"634-469-7914"},
{"id":885,"name":"Madalena Birley","service":"Mechanical Systems Engineer","location":"Apt 301","rating":2,"profileImage":"http://dummyimage.com/124x100.png/cc0000/ffffff","phone":"763-346-5247"},
{"id":886,"name":"Letitia McGurk","service":"Database Administrator III","location":"PO Box 20692","rating":2,"profileImage":"http://dummyimage.com/216x100.png/dddddd/000000","phone":"491-676-7321"},
{"id":887,"name":"Noelani Winton","service":"Executive Secretary","location":"Apt 1365","rating":2,"profileImage":"http://dummyimage.com/108x100.png/ff4444/ffffff","phone":"705-121-7359"},
{"id":888,"name":"Burnaby Swiggs","service":"Environmental Specialist","location":"Room 263","rating":2,"profileImage":"http://dummyimage.com/132x100.png/5fa2dd/ffffff","phone":"928-894-7044"},
{"id":889,"name":"Abagael Girdler","service":"Software Consultant","location":"Apt 1323","rating":4,"profileImage":"http://dummyimage.com/202x100.png/5fa2dd/ffffff","phone":"886-132-6207"},
{"id":890,"name":"Dun McMeekan","service":"Dental Hygienist","location":"18th Floor","rating":2,"profileImage":"http://dummyimage.com/111x100.png/cc0000/ffffff","phone":"882-393-6854"},
{"id":891,"name":"Paule Lashbrook","service":"Desktop Support Technician","location":"1st Floor","rating":4,"profileImage":"http://dummyimage.com/173x100.png/dddddd/000000","phone":"994-647-2653"},
{"id":892,"name":"Manya Vautin","service":"Information Systems Manager","location":"Suite 80","rating":4,"profileImage":"http://dummyimage.com/165x100.png/cc0000/ffffff","phone":"539-875-3904"},
{"id":893,"name":"Arney Downham","service":"Senior Developer","location":"PO Box 91469","rating":3,"profileImage":"http://dummyimage.com/181x100.png/5fa2dd/ffffff","phone":"445-681-7349"},
{"id":894,"name":"Arleta Steane","service":"Analog Circuit Design manager","location":"Room 189","rating":1,"profileImage":"http://dummyimage.com/196x100.png/ff4444/ffffff","phone":"595-134-0343"},
{"id":895,"name":"Oriana Shiels","service":"Financial Analyst","location":"PO Box 24437","rating":4,"profileImage":"http://dummyimage.com/199x100.png/ff4444/ffffff","phone":"438-518-6987"},
{"id":896,"name":"Kaiser Targett","service":"Physical Therapy Assistant","location":"Room 946","rating":5,"profileImage":"http://dummyimage.com/142x100.png/cc0000/ffffff","phone":"669-427-9661"},
{"id":897,"name":"Carney McCafferky","service":"Account Coordinator","location":"2nd Floor","rating":2,"profileImage":"http://dummyimage.com/106x100.png/5fa2dd/ffffff","phone":"174-522-8413"},
{"id":898,"name":"Bee Lambird","service":"Biostatistician II","location":"Suite 53","rating":1,"profileImage":"http://dummyimage.com/194x100.png/ff4444/ffffff","phone":"891-126-9886"},
{"id":899,"name":"Janeta Ivett","service":"Financial Advisor","location":"Suite 83","rating":5,"profileImage":"http://dummyimage.com/248x100.png/5fa2dd/ffffff","phone":"377-540-0140"},
{"id":900,"name":"Hally Scimonelli","service":"Senior Editor","location":"4th Floor","rating":5,"profileImage":"http://dummyimage.com/246x100.png/dddddd/000000","phone":"909-885-0164"},
{"id":901,"name":"Piggy Waycott","service":"Automation Specialist III","location":"Suite 21","rating":2,"profileImage":"http://dummyimage.com/151x100.png/5fa2dd/ffffff","phone":"377-856-5614"},
{"id":902,"name":"Vivianne Gilkison","service":"Electrical Engineer","location":"PO Box 36359","rating":5,"profileImage":"http://dummyimage.com/170x100.png/5fa2dd/ffffff","phone":"375-587-2899"},
{"id":903,"name":"Candace Tison","service":"Technical Writer","location":"Suite 93","rating":1,"profileImage":"http://dummyimage.com/166x100.png/dddddd/000000","phone":"585-542-4868"},
{"id":904,"name":"Fiann Crannage","service":"Account Coordinator","location":"Apt 27","rating":2,"profileImage":"http://dummyimage.com/105x100.png/cc0000/ffffff","phone":"494-422-9057"},
{"id":905,"name":"Skelly Shelford","service":"Financial Advisor","location":"Apt 1994","rating":2,"profileImage":"http://dummyimage.com/112x100.png/ff4444/ffffff","phone":"286-112-0099"},
{"id":906,"name":"Marnia Grogona","service":"Programmer I","location":"Room 1916","rating":2,"profileImage":"http://dummyimage.com/164x100.png/cc0000/ffffff","phone":"488-514-4868"},
{"id":907,"name":"Franzen Meldrum","service":"Database Administrator I","location":"Suite 79","rating":5,"profileImage":"http://dummyimage.com/204x100.png/ff4444/ffffff","phone":"819-992-4794"},
{"id":908,"name":"Julia Gamell","service":"Project Manager","location":"Apt 1357","rating":4,"profileImage":"http://dummyimage.com/135x100.png/5fa2dd/ffffff","phone":"826-253-2839"},
{"id":909,"name":"Ken Gawthorp","service":"Research Assistant III","location":"Apt 1037","rating":4,"profileImage":"http://dummyimage.com/117x100.png/ff4444/ffffff","phone":"895-617-3059"},
{"id":910,"name":"Zitella Quixley","service":"Structural Analysis Engineer","location":"Room 422","rating":2,"profileImage":"http://dummyimage.com/250x100.png/ff4444/ffffff","phone":"732-827-0845"},
{"id":911,"name":"Merwin Ludlem","service":"Environmental Specialist","location":"Room 264","rating":1,"profileImage":"http://dummyimage.com/106x100.png/dddddd/000000","phone":"695-894-7466"},
{"id":912,"name":"Alysa Kinnoch","service":"Research Assistant IV","location":"PO Box 34073","rating":5,"profileImage":"http://dummyimage.com/132x100.png/ff4444/ffffff","phone":"825-665-7521"},
{"id":913,"name":"Jeanna Kincey","service":"VP Accounting","location":"8th Floor","rating":1,"profileImage":"http://dummyimage.com/228x100.png/dddddd/000000","phone":"425-185-1458"},
{"id":914,"name":"Brunhilde Caffery","service":"Pharmacist","location":"Suite 25","rating":5,"profileImage":"http://dummyimage.com/197x100.png/dddddd/000000","phone":"198-650-8920"},
{"id":915,"name":"Alwyn Kettell","service":"Analog Circuit Design manager","location":"Apt 1687","rating":5,"profileImage":"http://dummyimage.com/149x100.png/5fa2dd/ffffff","phone":"961-602-1892"},
{"id":916,"name":"Thedric Smewing","service":"Structural Analysis Engineer","location":"8th Floor","rating":1,"profileImage":"http://dummyimage.com/185x100.png/5fa2dd/ffffff","phone":"499-197-3657"},
{"id":917,"name":"Sheilakathryn Deam","service":"Programmer IV","location":"Room 696","rating":3,"profileImage":"http://dummyimage.com/113x100.png/ff4444/ffffff","phone":"385-424-4054"},
{"id":918,"name":"Carroll July","service":"Registered Nurse","location":"PO Box 39392","rating":4,"profileImage":"http://dummyimage.com/210x100.png/cc0000/ffffff","phone":"234-596-5299"},
{"id":919,"name":"Nicolle Colwill","service":"Account Executive","location":"Apt 1338","rating":4,"profileImage":"http://dummyimage.com/247x100.png/dddddd/000000","phone":"252-630-5612"},
{"id":920,"name":"Michel Madgewick","service":"Web Designer II","location":"PO Box 35894","rating":1,"profileImage":"http://dummyimage.com/120x100.png/cc0000/ffffff","phone":"806-212-4233"},
{"id":921,"name":"Wileen Greensite","service":"VP Sales","location":"Suite 43","rating":4,"profileImage":"http://dummyimage.com/228x100.png/dddddd/000000","phone":"536-137-0836"},
{"id":922,"name":"Doy Springthorpe","service":"Nurse Practicioner","location":"Suite 3","rating":1,"profileImage":"http://dummyimage.com/159x100.png/dddddd/000000","phone":"471-341-0895"},
{"id":923,"name":"Jolie Redish","service":"Nurse Practicioner","location":"6th Floor","rating":2,"profileImage":"http://dummyimage.com/115x100.png/cc0000/ffffff","phone":"536-525-8167"},
{"id":924,"name":"Jenine Body","service":"Assistant Media Planner","location":"Apt 684","rating":5,"profileImage":"http://dummyimage.com/113x100.png/dddddd/000000","phone":"309-156-6694"},
{"id":925,"name":"Tommy Nuzzi","service":"Director of Sales","location":"PO Box 75422","rating":4,"profileImage":"http://dummyimage.com/181x100.png/dddddd/000000","phone":"145-254-7866"},
{"id":926,"name":"Prescott Feuell","service":"Senior Developer","location":"PO Box 91118","rating":3,"profileImage":"http://dummyimage.com/101x100.png/cc0000/ffffff","phone":"771-612-4836"},
{"id":927,"name":"Guenna Joly","service":"Analog Circuit Design manager","location":"Suite 88","rating":2,"profileImage":"http://dummyimage.com/139x100.png/5fa2dd/ffffff","phone":"629-842-8973"},
{"id":928,"name":"Berny Veillard","service":"General Manager","location":"Apt 1622","rating":2,"profileImage":"http://dummyimage.com/155x100.png/ff4444/ffffff","phone":"917-264-5348"},
{"id":929,"name":"Jameson Thickens","service":"Mechanical Systems Engineer","location":"Apt 259","rating":1,"profileImage":"http://dummyimage.com/139x100.png/5fa2dd/ffffff","phone":"189-746-4915"},
{"id":930,"name":"Maye Kernermann","service":"Physical Therapy Assistant","location":"Suite 11","rating":4,"profileImage":"http://dummyimage.com/223x100.png/ff4444/ffffff","phone":"595-233-4074"},
{"id":931,"name":"Row Wulfinger","service":"Web Designer IV","location":"10th Floor","rating":5,"profileImage":"http://dummyimage.com/190x100.png/dddddd/000000","phone":"147-593-8063"},
{"id":932,"name":"Randal Swanborough","service":"VP Sales","location":"Room 21","rating":3,"profileImage":"http://dummyimage.com/110x100.png/5fa2dd/ffffff","phone":"999-325-9223"},
{"id":933,"name":"Joella Stones","service":"Executive Secretary","location":"PO Box 91774","rating":4,"profileImage":"http://dummyimage.com/227x100.png/dddddd/000000","phone":"385-354-4323"},
{"id":934,"name":"De Hansman","service":"Engineer III","location":"Room 1704","rating":3,"profileImage":"http://dummyimage.com/185x100.png/cc0000/ffffff","phone":"922-418-5156"},
{"id":935,"name":"Laural Emptage","service":"VP Product Management","location":"13th Floor","rating":1,"profileImage":"http://dummyimage.com/141x100.png/ff4444/ffffff","phone":"241-239-2215"},
{"id":936,"name":"Danny Bartul","service":"Legal Assistant","location":"PO Box 82082","rating":2,"profileImage":"http://dummyimage.com/135x100.png/dddddd/000000","phone":"290-322-0223"},
{"id":937,"name":"Sheila Vickress","service":"Senior Editor","location":"Room 203","rating":2,"profileImage":"http://dummyimage.com/129x100.png/ff4444/ffffff","phone":"175-948-4287"},
{"id":938,"name":"Lonna O'Nowlan","service":"Quality Engineer","location":"Apt 319","rating":4,"profileImage":"http://dummyimage.com/189x100.png/cc0000/ffffff","phone":"562-563-0281"},
{"id":939,"name":"Brigham Grishankov","service":"Marketing Manager","location":"Suite 95","rating":2,"profileImage":"http://dummyimage.com/117x100.png/cc0000/ffffff","phone":"781-906-0243"},
{"id":940,"name":"Elijah Peres","service":"Pharmacist","location":"Apt 1311","rating":3,"profileImage":"http://dummyimage.com/132x100.png/cc0000/ffffff","phone":"985-745-2618"},
{"id":941,"name":"Glori Harper","service":"Structural Analysis Engineer","location":"Apt 864","rating":4,"profileImage":"http://dummyimage.com/161x100.png/5fa2dd/ffffff","phone":"786-313-5054"},
{"id":942,"name":"Blythe Chattell","service":"Senior Quality Engineer","location":"7th Floor","rating":3,"profileImage":"http://dummyimage.com/227x100.png/cc0000/ffffff","phone":"240-564-9873"},
{"id":943,"name":"Allis Evers","service":"Quality Engineer","location":"15th Floor","rating":4,"profileImage":"http://dummyimage.com/119x100.png/cc0000/ffffff","phone":"636-258-5124"},
{"id":944,"name":"Filippa Annes","service":"Senior Developer","location":"Suite 5","rating":1,"profileImage":"http://dummyimage.com/113x100.png/ff4444/ffffff","phone":"172-839-3510"},
{"id":945,"name":"Hesther Heaselgrave","service":"Database Administrator II","location":"5th Floor","rating":3,"profileImage":"http://dummyimage.com/236x100.png/5fa2dd/ffffff","phone":"793-983-7756"},
{"id":946,"name":"Birgitta Maith","service":"Administrative Assistant II","location":"19th Floor","rating":5,"profileImage":"http://dummyimage.com/236x100.png/cc0000/ffffff","phone":"270-669-0155"},
{"id":947,"name":"Elwyn East","service":"Automation Specialist III","location":"PO Box 58671","rating":3,"profileImage":"http://dummyimage.com/235x100.png/dddddd/000000","phone":"945-350-0716"},
{"id":948,"name":"Holly Esby","service":"Graphic Designer","location":"Apt 1943","rating":3,"profileImage":"http://dummyimage.com/206x100.png/ff4444/ffffff","phone":"867-556-1629"},
{"id":949,"name":"Deane Mufford","service":"Engineer II","location":"Apt 167","rating":1,"profileImage":"http://dummyimage.com/152x100.png/cc0000/ffffff","phone":"883-431-4022"},
{"id":950,"name":"Stephanus Alstead","service":"VP Product Management","location":"Apt 610","rating":1,"profileImage":"http://dummyimage.com/150x100.png/5fa2dd/ffffff","phone":"460-129-1600"},
{"id":951,"name":"Patton Fellows","service":"VP Marketing","location":"Room 364","rating":2,"profileImage":"http://dummyimage.com/154x100.png/ff4444/ffffff","phone":"279-551-7262"},
{"id":952,"name":"Markos Trenam","service":"VP Product Management","location":"20th Floor","rating":5,"profileImage":"http://dummyimage.com/228x100.png/dddddd/000000","phone":"209-550-5904"},
{"id":953,"name":"Vin Henrichs","service":"Biostatistician II","location":"Room 1702","rating":4,"profileImage":"http://dummyimage.com/101x100.png/dddddd/000000","phone":"362-812-8261"},
{"id":954,"name":"Elinore Penreth","service":"Community Outreach Specialist","location":"Room 1251","rating":2,"profileImage":"http://dummyimage.com/164x100.png/cc0000/ffffff","phone":"245-566-4889"},
{"id":955,"name":"Audi Burdfield","service":"Actuary","location":"PO Box 51916","rating":1,"profileImage":"http://dummyimage.com/135x100.png/5fa2dd/ffffff","phone":"518-750-8405"},
{"id":956,"name":"Malanie Noquet","service":"Dental Hygienist","location":"Room 944","rating":5,"profileImage":"http://dummyimage.com/144x100.png/ff4444/ffffff","phone":"225-924-6316"},
{"id":957,"name":"Erda Howieson","service":"Actuary","location":"17th Floor","rating":2,"profileImage":"http://dummyimage.com/182x100.png/5fa2dd/ffffff","phone":"476-500-1211"},
{"id":958,"name":"Iago Williamson","service":"Design Engineer","location":"4th Floor","rating":5,"profileImage":"http://dummyimage.com/173x100.png/cc0000/ffffff","phone":"641-682-9992"},
{"id":959,"name":"Lawrence Afonso","service":"Media Manager IV","location":"20th Floor","rating":4,"profileImage":"http://dummyimage.com/242x100.png/dddddd/000000","phone":"143-280-4779"},
{"id":960,"name":"Red Iacovelli","service":"Programmer Analyst IV","location":"PO Box 11880","rating":4,"profileImage":"http://dummyimage.com/134x100.png/dddddd/000000","phone":"844-441-8431"},
{"id":961,"name":"Clare Castagnet","service":"Senior Quality Engineer","location":"Room 58","rating":2,"profileImage":"http://dummyimage.com/149x100.png/cc0000/ffffff","phone":"297-275-9314"},
{"id":962,"name":"Ellary Craythorne","service":"Recruiter","location":"Apt 1295","rating":4,"profileImage":"http://dummyimage.com/198x100.png/ff4444/ffffff","phone":"313-950-0071"},
{"id":963,"name":"Staffard Hakonsson","service":"Editor","location":"Room 1059","rating":4,"profileImage":"http://dummyimage.com/208x100.png/ff4444/ffffff","phone":"187-848-4660"},
{"id":964,"name":"Selle Flexman","service":"Accountant IV","location":"Apt 544","rating":4,"profileImage":"http://dummyimage.com/228x100.png/5fa2dd/ffffff","phone":"704-854-2668"},
{"id":965,"name":"Myrna Hackforth","service":"Community Outreach Specialist","location":"11th Floor","rating":3,"profileImage":"http://dummyimage.com/127x100.png/dddddd/000000","phone":"197-319-4692"},
{"id":966,"name":"Lindsey Nichols","service":"Human Resources Manager","location":"PO Box 25222","rating":2,"profileImage":"http://dummyimage.com/250x100.png/5fa2dd/ffffff","phone":"482-255-4860"},
{"id":967,"name":"Penni Stigers","service":"Occupational Therapist","location":"Suite 23","rating":2,"profileImage":"http://dummyimage.com/222x100.png/5fa2dd/ffffff","phone":"440-796-6215"},
{"id":968,"name":"Mellie Edowes","service":"Web Designer II","location":"Apt 1404","rating":1,"profileImage":"http://dummyimage.com/186x100.png/5fa2dd/ffffff","phone":"960-860-6780"},
{"id":969,"name":"Karney McGannon","service":"GIS Technical Architect","location":"Suite 58","rating":3,"profileImage":"http://dummyimage.com/242x100.png/ff4444/ffffff","phone":"880-154-3539"},
{"id":970,"name":"Pepi Nulty","service":"Mechanical Systems Engineer","location":"Apt 1339","rating":5,"profileImage":"http://dummyimage.com/209x100.png/ff4444/ffffff","phone":"797-716-2183"},
{"id":971,"name":"Loise Bernardt","service":"Tax Accountant","location":"Suite 49","rating":4,"profileImage":"http://dummyimage.com/183x100.png/dddddd/000000","phone":"514-837-0162"},
{"id":972,"name":"Grace Dalli","service":"Teacher","location":"Apt 499","rating":5,"profileImage":"http://dummyimage.com/156x100.png/ff4444/ffffff","phone":"954-157-3053"},
{"id":973,"name":"Townie Brinicombe","service":"Administrative Assistant II","location":"Apt 822","rating":4,"profileImage":"http://dummyimage.com/131x100.png/5fa2dd/ffffff","phone":"934-154-0998"},
{"id":974,"name":"My Fleg","service":"Design Engineer","location":"Suite 87","rating":1,"profileImage":"http://dummyimage.com/220x100.png/ff4444/ffffff","phone":"272-105-4054"},
{"id":975,"name":"Caitrin Hek","service":"Accounting Assistant II","location":"Suite 77","rating":2,"profileImage":"http://dummyimage.com/136x100.png/ff4444/ffffff","phone":"489-628-6955"},
{"id":976,"name":"Kain Illes","service":"Marketing Assistant","location":"Room 603","rating":3,"profileImage":"http://dummyimage.com/133x100.png/ff4444/ffffff","phone":"212-880-4454"},
{"id":977,"name":"Mureil Iacomo","service":"Technical Writer","location":"17th Floor","rating":1,"profileImage":"http://dummyimage.com/239x100.png/5fa2dd/ffffff","phone":"370-738-0034"},
{"id":978,"name":"Tyrone Bariball","service":"Geologist IV","location":"Suite 32","rating":3,"profileImage":"http://dummyimage.com/228x100.png/dddddd/000000","phone":"675-701-4913"},
{"id":979,"name":"Nat Verrico","service":"Accountant I","location":"Room 1901","rating":2,"profileImage":"http://dummyimage.com/216x100.png/ff4444/ffffff","phone":"715-738-2042"},
{"id":980,"name":"Teresa Lownie","service":"Cost Accountant","location":"PO Box 59129","rating":2,"profileImage":"http://dummyimage.com/139x100.png/5fa2dd/ffffff","phone":"840-617-6603"},
{"id":981,"name":"Conrado Latter","service":"Recruiting Manager","location":"Apt 1651","rating":5,"profileImage":"http://dummyimage.com/182x100.png/dddddd/000000","phone":"607-992-3177"},
{"id":982,"name":"Rosita Pringley","service":"VP Product Management","location":"20th Floor","rating":4,"profileImage":"http://dummyimage.com/184x100.png/dddddd/000000","phone":"326-310-9809"},
{"id":983,"name":"Lynn Kehoe","service":"Research Associate","location":"Apt 1511","rating":1,"profileImage":"http://dummyimage.com/144x100.png/dddddd/000000","phone":"971-643-6977"},
{"id":984,"name":"Stormy Whal","service":"Marketing Assistant","location":"9th Floor","rating":4,"profileImage":"http://dummyimage.com/192x100.png/dddddd/000000","phone":"629-804-2118"},
{"id":985,"name":"Sal Matasov","service":"Computer Systems Analyst IV","location":"PO Box 97264","rating":1,"profileImage":"http://dummyimage.com/157x100.png/5fa2dd/ffffff","phone":"552-715-2200"},
{"id":986,"name":"Walker Duggleby","service":"Programmer III","location":"12th Floor","rating":1,"profileImage":"http://dummyimage.com/169x100.png/dddddd/000000","phone":"715-488-6489"},
{"id":987,"name":"Jazmin Hatter","service":"GIS Technical Architect","location":"PO Box 56016","rating":2,"profileImage":"http://dummyimage.com/192x100.png/5fa2dd/ffffff","phone":"161-379-3721"},
{"id":988,"name":"Roseanna Blaxeland","service":"Design Engineer","location":"Apt 670","rating":2,"profileImage":"http://dummyimage.com/187x100.png/ff4444/ffffff","phone":"820-766-5578"},
{"id":989,"name":"Colan Harrill","service":"Automation Specialist II","location":"Room 1717","rating":2,"profileImage":"http://dummyimage.com/238x100.png/5fa2dd/ffffff","phone":"999-178-6066"},
{"id":990,"name":"Tremayne Brandreth","service":"Information Systems Manager","location":"Room 1632","rating":3,"profileImage":"http://dummyimage.com/117x100.png/dddddd/000000","phone":"521-694-8290"},
{"id":991,"name":"Garnet O'Carrol","service":"Computer Systems Analyst II","location":"Suite 73","rating":2,"profileImage":"http://dummyimage.com/247x100.png/5fa2dd/ffffff","phone":"295-359-6663"},
{"id":992,"name":"Wandie Cuckoo","service":"Desktop Support Technician","location":"Suite 84","rating":3,"profileImage":"http://dummyimage.com/188x100.png/cc0000/ffffff","phone":"748-852-9841"},
{"id":993,"name":"Amalie Branscombe","service":"Assistant Manager","location":"PO Box 55434","rating":5,"profileImage":"http://dummyimage.com/198x100.png/5fa2dd/ffffff","phone":"157-587-5680"},
{"id":994,"name":"Ryann Flemming","service":"Graphic Designer","location":"Apt 1054","rating":4,"profileImage":"http://dummyimage.com/140x100.png/dddddd/000000","phone":"590-638-0979"},
{"id":995,"name":"Ebony Backsal","service":"GIS Technical Architect","location":"Apt 104","rating":4,"profileImage":"http://dummyimage.com/198x100.png/5fa2dd/ffffff","phone":"278-411-8477"},
{"id":996,"name":"Jasen Pawfoot","service":"Automation Specialist III","location":"Suite 22","rating":5,"profileImage":"http://dummyimage.com/209x100.png/cc0000/ffffff","phone":"450-384-4817"},
{"id":997,"name":"Chiarra Milburn","service":"Analyst Programmer","location":"16th Floor","rating":2,"profileImage":"http://dummyimage.com/124x100.png/ff4444/ffffff","phone":"128-669-1593"},
{"id":998,"name":"Andy Dahmel","service":"Media Manager IV","location":"Apt 1834","rating":5,"profileImage":"http://dummyimage.com/151x100.png/5fa2dd/ffffff","phone":"919-507-3261"},
{"id":999,"name":"Pebrook Mannering","service":"Account Executive","location":"1st Floor","rating":2,"profileImage":"http://dummyimage.com/180x100.png/dddddd/000000","phone":"786-415-8641"},
{"id":1000,"name":"Willis Ramsdale","service":"Physical Therapy Assistant","location":"Apt 1671","rating":4,"profileImage":"http://dummyimage.com/189x100.png/5fa2dd/ffffff","phone":"469-868-1172"}]